{"type": "FeatureCollection", "features": [{"type": "Feature", "geometry": {"type": "Point", "coordinates": [-72.5395, 42.36262]}, "properties": {"name": "Courtyard Marriott - Hadley Amherst", "nrel_id": 37813}}, {"type": "Feature", "geometry": {"type": "Point", "coordinates": [-71.041557, 42.349249]}, "properties": {"name": "SEAPORT GARAGE EAST GARAGE2 P1;SEAPORT GARAGE SEAPORT HOTEL 3;SEAPORT GARAGE SEAPORT HOTEL 1;SEAPORT GARAGE SEAPORT HOTEL 2;SEAPORT GARAGE SEAPORT VALET;SEAPORT GARAGE SEAPORT HOTEL 4;SEAPORT GARAGE WEST GARAGE2 P1;SEAPORT GARAGE EAST GARAGE P1", "network": "CHARGEPOINT", "nrel_id": 38254, "network_id": "USCPIL367381;USCPIL278871;USCPIL278821;USCPIL278811;USCPIL268691;USCPIL117667;USCPIL370051;USCPIL114349"}}, {"type": "Feature", "geometry": {"type": "Point", "coordinates": [-71.122882, 42.372442]}, "properties": {"name": "Charles Hotel - Harvard Square", "nrel_id": 38525}}, {"type": "Feature", "geometry": {"type": "Point", "coordinates": [-71.713346, 42.525121]}, "properties": {"name": "NATIONAL GRID CHILIS LEOMNSTR", "network": "CHARGEPOINT", "nrel_id": 43178, "network_id": "USCPIL552041"}}, {"type": "Feature", "geometry": {"type": "Point", "coordinates": [-71.41896, 42.5703]}, "properties": {"name": "NATIONAL GRID CHILIS WESTFORD", "network": "CHARGEPOINT", "nrel_id": 43182, "network_id": "USCPIL554961"}}, {"type": "Feature", "geometry": {"type": "Point", "coordinates": [-71.794678, 42.260546]}, "properties": {"name": "NATIONAL GRID UNION STATION 1;NATIONAL GRID UNION STATION 2", "network": "CHARGEPOINT", "nrel_id": 43186, "network_id": "USCPIL555241;USCPIL551921"}}, {"type": "Feature", "geometry": {"type": "Point", "coordinates": [-71.055089, 42.358449]}, "properties": {"name": "State Street Garage", "nrel_id": 43860}}, {"type": "Feature", "geometry": {"type": "Point", "coordinates": [-70.847133, 42.799163]}, "properties": {"name": "MASS AUDUBON JOPPA FLATS", "network": "CHARGEPOINT", "nrel_id": 43865, "network_id": "USCPIL765911"}}, {"type": "Feature", "geometry": {"type": "Point", "coordinates": [-71.311914, 42.032751]}, "properties": {"name": "NATIONAL GRID CHILIS PLNVILLE", "network": "CHARGEPOINT", "nrel_id": 43868, "network_id": "USCPIL551961"}}, {"type": "Feature", "geometry": {"type": "Point", "coordinates": [-70.996891, 42.410782]}, "properties": {"name": "ChargePoint", "network": "CHARGEPOINT", "osm_id": 9570069808, "nrel_id": 44927, "network_id": "USCPIL506141"}}, {"type": "Feature", "geometry": {"type": "Point", "coordinates": [-70.916995, 42.132105]}, "properties": {"name": "NATIONAL GRID ROCKLANDLIBRARY", "network": "CHARGEPOINT", "nrel_id": 44929, "network_id": "USCPIL551981"}}, {"type": "Feature", "geometry": {"type": "Point", "coordinates": [-72.626476, 42.119685]}, "properties": {"name": "Jerry Rome Nissan", "nrel_id": 45812}}, {"type": "Feature", "geometry": {"type": "Point", "coordinates": [-72.626476, 42.119685]}, "properties": {"name": "Jerry Rome Nissan", "nrel_id": 45813}}, {"type": "Feature", "geometry": {"type": "Point", "coordinates": [-71.119302, 42.499069]}, "properties": {"name": "Kelly Nissan of Woburn", "nrel_id": 45817}}, {"type": "Feature", "geometry": {"type": "Point", "coordinates": [-71.850396, 42.182748]}, "properties": {"name": "Bertera Nissan", "nrel_id": 45874}}, {"type": "Feature", "geometry": {"type": "Point", "coordinates": [-71.850396, 42.182748]}, "properties": {"name": "Bertera Nissan", "nrel_id": 45875}}, {"type": "Feature", "geometry": {"type": "Point", "coordinates": [-70.58621, 41.73883]}, "properties": {"name": "Battles Nissan", "nrel_id": 45878}}, {"type": "Feature", "geometry": {"type": "Point", "coordinates": [-70.58621, 41.73883]}, "properties": {"name": "Battles Nissan", "nrel_id": 45879}}, {"type": "Feature", "geometry": {"type": "Point", "coordinates": [-71.058186, 42.063356]}, "properties": {"name": "Nissan 24", "nrel_id": 45880}}, {"type": "Feature", "geometry": {"type": "Point", "coordinates": [-71.058186, 42.063356]}, "properties": {"name": "Nissan 24", "nrel_id": 45881}}, {"type": "Feature", "geometry": {"type": "Point", "coordinates": [-72.575914, 42.17889]}, "properties": {"name": "Curry Nissan Chicopee", "nrel_id": 45882}}, {"type": "Feature", "geometry": {"type": "Point", "coordinates": [-72.60616, 42.34039]}, "properties": {"name": "Country Nissan", "nrel_id": 45886}}, {"type": "Feature", "geometry": {"type": "Point", "coordinates": [-72.60616, 42.34039]}, "properties": {"name": "Country Nissan", "nrel_id": 45887}}, {"type": "Feature", "geometry": {"type": "Point", "coordinates": [-70.7127, 41.976052]}, "properties": {"name": "Sullivan Brothers Nissan", "nrel_id": 45890}}, {"type": "Feature", "geometry": {"type": "Point", "coordinates": [-70.7127, 41.976052]}, "properties": {"name": "Sullivan Brothers Nissan", "nrel_id": 45891}}, {"type": "Feature", "geometry": {"type": "Point", "coordinates": [-71.70076, 42.51942]}, "properties": {"name": "Ron Bouchard's Nissan", "nrel_id": 45892}}, {"type": "Feature", "geometry": {"type": "Point", "coordinates": [-71.70076, 42.51942]}, "properties": {"name": "Ron Bouchard's Nissan", "nrel_id": 45893}}, {"type": "Feature", "geometry": {"type": "Point", "coordinates": [-71.008978, 42.509982]}, "properties": {"name": "Kelly Nissan - Lynnfield", "nrel_id": 45894}}, {"type": "Feature", "geometry": {"type": "Point", "coordinates": [-71.008978, 42.509982]}, "properties": {"name": "Kelly Nissan - Lynnfield", "nrel_id": 45895}}, {"type": "Feature", "geometry": {"type": "Point", "coordinates": [-71.500717, 42.351115]}, "properties": {"name": "Marlborough Nissan", "nrel_id": 45896}}, {"type": "Feature", "geometry": {"type": "Point", "coordinates": [-71.500717, 42.351115]}, "properties": {"name": "Marlborough Nissan", "nrel_id": 45897}}, {"type": "Feature", "geometry": {"type": "Point", "coordinates": [-71.106619, 42.412492]}, "properties": {"name": "Colonial Nissan - Medford", "nrel_id": 45898}}, {"type": "Feature", "geometry": {"type": "Point", "coordinates": [-71.106619, 42.412492]}, "properties": {"name": "Colonial Nissan - Medford", "nrel_id": 45899}}, {"type": "Feature", "geometry": {"type": "Point", "coordinates": [-71.342187, 41.960366]}, "properties": {"name": "Nissan Village of North Attleboro", "nrel_id": 45902}}, {"type": "Feature", "geometry": {"type": "Point", "coordinates": [-71.342187, 41.960366]}, "properties": {"name": "Nissan Village of North Attleboro", "nrel_id": 45903}}, {"type": "Feature", "geometry": {"type": "Point", "coordinates": [-70.887748, 42.165417]}, "properties": {"name": "Coastal Nissan", "nrel_id": 45904}}, {"type": "Feature", "geometry": {"type": "Point", "coordinates": [-70.887748, 42.165417]}, "properties": {"name": "Coastal Nissan", "nrel_id": 45905}}, {"type": "Feature", "geometry": {"type": "Point", "coordinates": [-71.1849, 42.192081]}, "properties": {"name": "Boch Nissan", "nrel_id": 45906}}, {"type": "Feature", "geometry": {"type": "Point", "coordinates": [-71.1849, 42.192081]}, "properties": {"name": "Boch Nissan", "nrel_id": 45907}}, {"type": "Feature", "geometry": {"type": "Point", "coordinates": [-73.256216, 42.445108]}, "properties": {"name": "Haddad Nissan", "nrel_id": 45908}}, {"type": "Feature", "geometry": {"type": "Point", "coordinates": [-73.256216, 42.445108]}, "properties": {"name": "Haddad Nissan", "nrel_id": 45909}}, {"type": "Feature", "geometry": {"type": "Point", "coordinates": [-70.99149, 42.25353]}, "properties": {"name": "Quirk Nissan", "nrel_id": 45910}}, {"type": "Feature", "geometry": {"type": "Point", "coordinates": [-70.99149, 42.25353]}, "properties": {"name": "Quirk Nissan", "nrel_id": 45911}}, {"type": "Feature", "geometry": {"type": "Point", "coordinates": [-71.017203, 41.904046]}, "properties": {"name": "Mastria Nissan", "nrel_id": 45912}}, {"type": "Feature", "geometry": {"type": "Point", "coordinates": [-71.017203, 41.904046]}, "properties": {"name": "Mastria Nissan", "nrel_id": 45913}}, {"type": "Feature", "geometry": {"type": "Point", "coordinates": [-70.90188, 42.579607]}, "properties": {"name": "Electric Insurance Co", "nrel_id": 46857}}, {"type": "Feature", "geometry": {"type": "Point", "coordinates": [-70.09553, 41.280829]}, "properties": {"name": "Town of Nantucket - Town Hall Annex", "nrel_id": 47471}}, {"type": "Feature", "geometry": {"type": "Point", "coordinates": [-70.063098, 41.258249]}, "properties": {"name": "Nantucket Airport", "nrel_id": 47473}}, {"type": "Feature", "geometry": {"type": "Point", "coordinates": [-70.962101, 42.55235]}, "properties": {"name": "Michaud Mitsubishi", "nrel_id": 48856}}, {"type": "Feature", "geometry": {"type": "Point", "coordinates": [-71.466175, 42.543673]}, "properties": {"name": "LELD TOYOTA 2", "network": "CHARGEPOINT", "nrel_id": 49026, "network_id": "USCPIL663701"}}, {"type": "Feature", "geometry": {"type": "Point", "coordinates": [-71.139068, 42.715137]}, "properties": {"name": "Commonwealth Nissan", "nrel_id": 49809}}, {"type": "Feature", "geometry": {"type": "Point", "coordinates": [-72.606154, 42.09573]}, "properties": {"name": "PEOPLESBANK 547 MEMORIAL", "network": "CHARGEPOINT", "nrel_id": 50080, "network_id": "USCPIL1960031"}}, {"type": "Feature", "geometry": {"type": "Point", "coordinates": [-72.631695, 42.317003]}, "properties": {"name": "City of Northampton - Crafts Ave", "nrel_id": 50166}}, {"type": "Feature", "geometry": {"type": "Point", "coordinates": [-72.635918, 42.331731]}, "properties": {"name": "City of Northampton - Fire Department", "nrel_id": 50167}}, {"type": "Feature", "geometry": {"type": "Point", "coordinates": [-72.64656, 42.169074]}, "properties": {"name": "PEOPLESBANK EV STATION 1", "network": "CHARGEPOINT", "nrel_id": 50483, "network_id": "USCPIL1954551"}}, {"type": "Feature", "geometry": {"type": "Point", "coordinates": [-71.49534, 42.151933]}, "properties": {"name": "Milford Nissan", "nrel_id": 50831}}, {"type": "Feature", "geometry": {"type": "Point", "coordinates": [-71.750743, 42.447366]}, "properties": {"name": "Kitchen Associates", "nrel_id": 51534}}, {"type": "Feature", "geometry": {"type": "Point", "coordinates": [-72.64216, 42.34054]}, "properties": {"name": "BIG Y FOODS NORTHAMPTON", "network": "CHARGEPOINT", "nrel_id": 51978, "network_id": "USCPIL2088251"}}, {"type": "Feature", "geometry": {"type": "Point", "coordinates": [-72.602897, 42.589292]}, "properties": {"name": "Chapman Davis Parking Lot", "nrel_id": 52053}}, {"type": "Feature", "geometry": {"type": "Point", "coordinates": [-72.601296, 42.587554]}, "properties": {"name": "Greenfield City Hall", "nrel_id": 52054}}, {"type": "Feature", "geometry": {"type": "Point", "coordinates": [-71.118634, 42.408624]}, "properties": {"name": "NATIONAL GRID TUFTS DOWLING", "network": "CHARGEPOINT", "nrel_id": 53091, "network_id": "USCPIL554981"}}, {"type": "Feature", "geometry": {"type": "Point", "coordinates": [-71.259886, 42.364399]}, "properties": {"name": "BRANDEIS ADMISSIONS LOT", "network": "CHARGEPOINT", "nrel_id": 53093, "network_id": "USCPIL614771"}}, {"type": "Feature", "geometry": {"type": "Point", "coordinates": [-72.635767, 42.333019]}, "properties": {"name": "PEOPLESBANK 300 KING ST", "network": "CHARGEPOINT", "nrel_id": 53419, "network_id": "USCPIL1958291"}}, {"type": "Feature", "geometry": {"type": "Point", "coordinates": [-71.452006, 42.4332]}, "properties": {"name": "Town of Maynard", "nrel_id": 53689}}, {"type": "Feature", "geometry": {"type": "Point", "coordinates": [-71.09234, 42.364906]}, "properties": {"name": "STATION 800 TECHSQGRG4;STATION 800 TECHSQGRG3;STATION 800 TECH SQ. GRG 1;STATION 800 TECH SQ. GRG 2", "network": "CHARGEPOINT", "nrel_id": 55674, "network_id": "USCPIL560581;USCPIL557791;USCPIL96205;USCPIL95999"}}, {"type": "Feature", "geometry": {"type": "Point", "coordinates": [-72.629513, 42.180922]}, "properties": {"name": "Marcotte Ford", "nrel_id": 60865}}, {"type": "Feature", "geometry": {"type": "Point", "coordinates": [-72.228514, 42.594042]}, "properties": {"name": "Athol Public Library", "nrel_id": 61317}}, {"type": "Feature", "geometry": {"type": "Point", "coordinates": [-71.310149, 42.641816]}, "properties": {"name": "CITY LOWELL MA EARLY NEW", "network": "CHARGEPOINT", "nrel_id": 62201, "network_id": "USCPIL802681"}}, {"type": "Feature", "geometry": {"type": "Point", "coordinates": [-71.481031, 42.542697]}, "properties": {"name": "LELD LIBRARY 2;LELD LIBRARY 4;LELD LIBRARY 3", "network": "CHARGEPOINT", "nrel_id": 62769, "network_id": "USCPIL655581;USCPIL13814791;USCPIL13814891"}}, {"type": "Feature", "geometry": {"type": "Point", "coordinates": [-71.024859, 42.456219]}, "properties": {"name": "York Ford", "nrel_id": 63609}}, {"type": "Feature", "geometry": {"type": "Point", "coordinates": [-71.430141, 42.441386]}, "properties": {"name": "Acton Ford", "nrel_id": 63614}}, {"type": "Feature", "geometry": {"type": "Point", "coordinates": [-71.160537, 42.458421]}, "properties": {"name": "Bonnell Ford", "nrel_id": 63711}}, {"type": "Feature", "geometry": {"type": "Point", "coordinates": [-70.848472, 42.153631]}, "properties": {"name": "Jannell Ford of Hanover", "nrel_id": 63803}}, {"type": "Feature", "geometry": {"type": "Point", "coordinates": [-71.062137, 42.359957]}, "properties": {"name": "Standard Parking", "nrel_id": 63990}}, {"type": "Feature", "geometry": {"type": "Point", "coordinates": [-71.149336, 42.530541]}, "properties": {"name": "RMLD ADI WOB STA6 NG;RMLD ADI WOB STA4 NG;RMLD ADI WOB STA5 NG;RMLD ADI WOB STA7 NG;RMLD ADI WOB STA2 NG;RMLD ADI WOB STA1 NG;RMLD ADI WOB STA3 GW", "network": "CHARGEPOINT", "nrel_id": 65005, "network_id": "USCPIL778781;USCPIL778741;USCPIL778731;USCPIL155277;USCPIL113645;USCPIL113639;USCPIL112379"}}, {"type": "Feature", "geometry": {"type": "Point", "coordinates": [-72.729866, 42.39264]}, "properties": {"name": "Cichy's Garage", "network": "AMPUP", "nrel_id": 65681}}, {"type": "Feature", "geometry": {"type": "Point", "coordinates": [-71.067034, 42.33593]}, "properties": {"name": "BUMC-BMC 610 ALBANY 4;BUMC-BMC 610 ALBANY 3;BUMC-BMC 610 ALBANY 2;BUMC-BMC 610 ALBANY 5;BUMC-BMC 610 ALBANY 7;BUMC-BMC 610 ALBANY 6", "network": "CHARGEPOINT", "nrel_id": 67371, "network_id": "USCPIL643401;USCPIL643391;USCPIL119647;USCPIL8689841;USCPIL8691411;USCPIL8691421"}}, {"type": "Feature", "geometry": {"type": "Point", "coordinates": [-70.272285, 41.661067]}, "properties": {"name": "Town of Barnstable", "nrel_id": 68428}}, {"type": "Feature", "geometry": {"type": "Point", "coordinates": [-71.222118, 42.272277]}, "properties": {"name": "Town of Needham", "nrel_id": 68429}}, {"type": "Feature", "geometry": {"type": "Point", "coordinates": [-70.640756, 42.629952]}, "properties": {"name": "City of Gloucester - City Hall Annex", "nrel_id": 68430}}, {"type": "Feature", "geometry": {"type": "Point", "coordinates": [-71.159371, 42.362359]}, "properties": {"name": "ARSENAL YARDS PURPLE ROOF", "network": "CHARGEPOINT", "nrel_id": 71856, "network_id": "USCPIL1954711"}}, {"type": "Feature", "geometry": {"type": "Point", "coordinates": [-71.070124, 42.40477]}, "properties": {"name": "Bank of New York Mellon", "nrel_id": 72012}}, {"type": "Feature", "geometry": {"type": "Point", "coordinates": [-71.154018, 42.371893]}, "properties": {"name": "Tufts Health Plan", "nrel_id": 72370}}, {"type": "Feature", "geometry": {"type": "Point", "coordinates": [-71.015181, 42.095649]}, "properties": {"name": "National Grid - Brockton", "nrel_id": 73235}}, {"type": "Feature", "geometry": {"type": "Point", "coordinates": [-71.512595, 42.116787]}, "properties": {"name": "National Grid - Hopedale", "network": "CHARGEPOINT", "nrel_id": 73237}}, {"type": "Feature", "geometry": {"type": "Point", "coordinates": [-71.740495, 42.518874]}, "properties": {"name": "National Grid - Leominster", "nrel_id": 73238}}, {"type": "Feature", "geometry": {"type": "Point", "coordinates": [-71.115733, 42.377123]}, "properties": {"name": "Harvard University", "nrel_id": 73239}}, {"type": "Feature", "geometry": {"type": "Point", "coordinates": [-70.180674, 42.055238]}, "properties": {"name": "The Mews Restaurant & Cafe", "nrel_id": 73903}}, {"type": "Feature", "geometry": {"type": "Point", "coordinates": [-71.185259, 42.19704]}, "properties": {"name": "Hampton Inn - Boston-Norwood", "nrel_id": 74171}}, {"type": "Feature", "geometry": {"type": "Point", "coordinates": [-71.307917, 42.646535]}, "properties": {"name": "CITY LOWELL MA JOE DOWNES;CITY LOWELL MA JOE DOWNES NEW", "network": "CHARGEPOINT", "nrel_id": 74329, "network_id": "USCPIL137825;USCPIL808841"}}, {"type": "Feature", "geometry": {"type": "Point", "coordinates": [-70.283791, 41.651319]}, "properties": {"name": "Barnstable Town Hall", "nrel_id": 75012}}, {"type": "Feature", "geometry": {"type": "Point", "coordinates": [-70.321246, 41.653828]}, "properties": {"name": "Barnstable High School", "nrel_id": 75013}}, {"type": "Feature", "geometry": {"type": "Point", "coordinates": [-70.27778, 41.66061]}, "properties": {"name": "Cape Cod Regional Transit", "nrel_id": 75014}}, {"type": "Feature", "geometry": {"type": "Point", "coordinates": [-70.925687, 41.633473]}, "properties": {"name": "Zieterion Garage", "nrel_id": 75023}}, {"type": "Feature", "geometry": {"type": "Point", "coordinates": [-71.051416, 42.011169]}, "properties": {"name": "NATIONAL GRID CHILIS W BRGWTR", "network": "CHARGEPOINT", "nrel_id": 76231, "network_id": "USCPIL555661"}}, {"type": "Feature", "geometry": {"type": "Point", "coordinates": [-71.349126, 42.282933]}, "properties": {"name": "Natick Center", "nrel_id": 76530}}, {"type": "Feature", "geometry": {"type": "Point", "coordinates": [-70.848472, 42.153631]}, "properties": {"name": "Jannell Ford of Hanover", "nrel_id": 76711}}, {"type": "Feature", "geometry": {"type": "Point", "coordinates": [-70.29057, 41.650907]}, "properties": {"name": "Town of Barnstable - Social Security Office", "nrel_id": 78275}}, {"type": "Feature", "geometry": {"type": "Point", "coordinates": [-70.31616, 41.65954]}, "properties": {"name": "Town of Barnstable - Senior Center", "nrel_id": 78276}}, {"type": "Feature", "geometry": {"type": "Point", "coordinates": [-71.013106, 42.407851]}, "properties": {"name": "Revere City Hall", "nrel_id": 78663}}, {"type": "Feature", "geometry": {"type": "Point", "coordinates": [-70.921574, 41.876114]}, "properties": {"name": "Massachusetts Department of Environmental Protection - Southeast Region Main Office", "nrel_id": 78665}}, {"type": "Feature", "geometry": {"type": "Point", "coordinates": [-72.636166, 42.181605]}, "properties": {"name": "Gary Rome Hyundai", "nrel_id": 80999}}, {"type": "Feature", "geometry": {"type": "Point", "coordinates": [-71.073954, 42.347597]}, "properties": {"name": "100 CLARENDON STATION 3;100 CLARENDON STATION 2;100 CLARENDON STATION 4;100 CLARENDON STATION 1", "network": "CHARGEPOINT", "nrel_id": 82264, "network_id": "USCPIL611981;USCPIL185619;USCPIL185579;USCPIL183323"}}, {"type": "Feature", "geometry": {"type": "Point", "coordinates": [-71.065477, 42.36758]}, "properties": {"name": "North Station Garage", "nrel_id": 82461}}, {"type": "Feature", "geometry": {"type": "Point", "coordinates": [-71.064251, 42.362557]}, "properties": {"name": "Longfellow Garage", "nrel_id": 82462}}, {"type": "Feature", "geometry": {"type": "Point", "coordinates": [-70.119368, 41.655972]}, "properties": {"name": "The Soundings Resort", "nrel_id": 82463}}, {"type": "Feature", "geometry": {"type": "Point", "coordinates": [-70.943461, 41.642131]}, "properties": {"name": "City Yard", "nrel_id": 85842}}, {"type": "Feature", "geometry": {"type": "Point", "coordinates": [-70.951362, 41.663264]}, "properties": {"name": "Department of Public Infrastructure", "nrel_id": 85843}}, {"type": "Feature", "geometry": {"type": "Point", "coordinates": [-70.944747, 41.642692]}, "properties": {"name": "School Public Facilities", "nrel_id": 85844}}, {"type": "Feature", "geometry": {"type": "Point", "coordinates": [-71.119302, 42.499069]}, "properties": {"name": "Kelly Nissan", "nrel_id": 85963}}, {"type": "Feature", "geometry": {"type": "Point", "coordinates": [-71.334515, 42.440458]}, "properties": {"name": "Walden Pond State Reservation", "nrel_id": 86863}}, {"type": "Feature", "geometry": {"type": "Point", "coordinates": [-71.136317, 42.363879]}, "properties": {"name": "Harvard University", "nrel_id": 87838}}, {"type": "Feature", "geometry": {"type": "Point", "coordinates": [-71.118918, 42.379954]}, "properties": {"name": "Harvard University", "nrel_id": 87839}}, {"type": "Feature", "geometry": {"type": "Point", "coordinates": [-71.112703, 42.374023]}, "properties": {"name": "Harvard University", "nrel_id": 87840}}, {"type": "Feature", "geometry": {"type": "Point", "coordinates": [-71.118297, 42.364162]}, "properties": {"name": "Harvard University", "nrel_id": 87841}}, {"type": "Feature", "geometry": {"type": "Point", "coordinates": [-71.114734, 42.367208]}, "properties": {"name": "Harvard University", "nrel_id": 87842}}, {"type": "Feature", "geometry": {"type": "Point", "coordinates": [-71.115156, 42.368953]}, "properties": {"name": "Harvard University", "nrel_id": 87843}}, {"type": "Feature", "geometry": {"type": "Point", "coordinates": [-71.115394, 42.365629]}, "properties": {"name": "Harvard University", "nrel_id": 87844}}, {"type": "Feature", "geometry": {"type": "Point", "coordinates": [-71.124074, 42.364028]}, "properties": {"name": "Harvard University", "nrel_id": 87845}}, {"type": "Feature", "geometry": {"type": "Point", "coordinates": [-71.131848, 42.362936]}, "properties": {"name": "Harvard University", "nrel_id": 87846}}, {"type": "Feature", "geometry": {"type": "Point", "coordinates": [-71.128979, 42.362247]}, "properties": {"name": "Harvard University", "nrel_id": 87847}}, {"type": "Feature", "geometry": {"type": "Point", "coordinates": [-72.527866, 42.385111]}, "properties": {"name": "UMASS AMHERST LOT 71 L2 LEFT", "network": "CHARGEPOINT", "nrel_id": 88785, "network_id": "USCPIL422561"}}, {"type": "Feature", "geometry": {"type": "Point", "coordinates": [-71.135222, 42.455926]}, "properties": {"name": "Winchester High School", "nrel_id": 91902}}, {"type": "Feature", "geometry": {"type": "Point", "coordinates": [-71.100752, 42.517701]}, "properties": {"name": "RMLD RMLD ASH ST ST2;RMLD RMLD ASH ST ST1;RMLD RMLD ASH ST ST3", "network": "CHARGEPOINT", "nrel_id": 92229, "network_id": "USCPIL5346621;USCPIL384351;USCPIL13936771"}}, {"type": "Feature", "geometry": {"type": "Point", "coordinates": [-71.746192, 42.275885]}, "properties": {"name": "WHOLE FOODS MKT SHREWSBURY ST1", "network": "CHARGEPOINT", "nrel_id": 92260, "network_id": "USCPIL354041"}}, {"type": "Feature", "geometry": {"type": "Point", "coordinates": [-71.187696, 42.313976]}, "properties": {"name": "CITY OF NEWTON SOUTH HIGH SCHL", "network": "CHARGEPOINT", "nrel_id": 94595, "network_id": "USCPIL421431"}}, {"type": "Feature", "geometry": {"type": "Point", "coordinates": [-71.095968, 42.338347]}, "properties": {"name": "MFA GARAGE 2;MFA GARAGE 1", "network": "CHARGEPOINT", "nrel_id": 96810, "network_id": "USCPIL446471;USCPIL377961"}}, {"type": "Feature", "geometry": {"type": "Point", "coordinates": [-71.366514, 42.364839]}, "properties": {"name": "STOP SHOP 2700 WAYLAND 4;STOP SHOP 2700 WAYLAND 5;STOP SHOP 2700 WAYLAND 3;STOP SHOP 2700 WAYLAND 1;STOP SHOP 2700 WAYLAND 2", "network": "CHARGEPOINT", "nrel_id": 96973, "network_id": "USCPIL573071;USCPIL558561;USCPIL499931;USCPIL493551;USCPIL531721"}}, {"type": "Feature", "geometry": {"type": "Point", "coordinates": [-70.215244, 41.639717]}, "properties": {"name": "Surfcomber", "nrel_id": 98542}}, {"type": "Feature", "geometry": {"type": "Point", "coordinates": [-71.056588, 42.357412]}, "properties": {"name": "Environmental Protection Agency", "nrel_id": 98675}}, {"type": "Feature", "geometry": {"type": "Point", "coordinates": [-71.790654, 42.273736]}, "properties": {"name": "UMASS MEMORIAL EMPLOYEE GAR #3;UMASS MEMORIAL EMPLOYEE GAR #2;UMASS MEMORIAL EMPLOYEE GAR #1", "network": "CHARGEPOINT", "nrel_id": 98816, "network_id": "USCPIL1770131;USCPIL1770101;USCPIL147011"}}, {"type": "Feature", "geometry": {"type": "Point", "coordinates": [-71.238858, 42.039132]}, "properties": {"name": "ChargePoint", "network": "CHARGEPOINT", "osm_id": 11954826464, "nrel_id": 98850, "network_id": "USCPIL554461"}}, {"type": "Feature", "geometry": {"type": "Point", "coordinates": [-70.916837, 41.785248]}, "properties": {"name": "Quittacas Water Treatment Plant", "nrel_id": 99437}}, {"type": "Feature", "geometry": {"type": "Point", "coordinates": [-70.945723, 41.642965]}, "properties": {"name": "Parker Street Lot", "nrel_id": 99438}}, {"type": "Feature", "geometry": {"type": "Point", "coordinates": [-71.363072, 42.624289]}, "properties": {"name": "AutoFair Nissan - Chelmsford", "nrel_id": 99461}}, {"type": "Feature", "geometry": {"type": "Point", "coordinates": [-71.363072, 42.624289]}, "properties": {"name": "AutoFair Nissan - Chelmsford", "nrel_id": 99462}}, {"type": "Feature", "geometry": {"type": "Point", "coordinates": [-71.581792, 42.340142]}, "properties": {"name": "NATIONAL GRID MARLBOROUGH 99", "network": "CHARGEPOINT", "nrel_id": 99749, "network_id": "USCPIL555091"}}, {"type": "Feature", "geometry": {"type": "Point", "coordinates": [-71.87158, 42.179301]}, "properties": {"name": "NATIONAL GRID CHILIS AUBURN", "network": "CHARGEPOINT", "nrel_id": 99750, "network_id": "USCPIL554581"}}, {"type": "Feature", "geometry": {"type": "Point", "coordinates": [-71.868379, 42.181028]}, "properties": {"name": "NATIONAL GRID AUBURN 99", "network": "CHARGEPOINT", "nrel_id": 99751, "network_id": "USCPIL552021"}}, {"type": "Feature", "geometry": {"type": "Point", "coordinates": [-71.447943, 42.555013]}, "properties": {"name": "NATIONAL GRID WESTFORD 99", "network": "CHARGEPOINT", "nrel_id": 99767, "network_id": "USCPIL551891"}}, {"type": "Feature", "geometry": {"type": "Point", "coordinates": [-71.500492, 42.150993]}, "properties": {"name": "NATIONAL GRID MILFORD 99", "network": "CHARGEPOINT", "nrel_id": 99805, "network_id": "USCPIL551831"}}, {"type": "Feature", "geometry": {"type": "Point", "coordinates": [-71.792148, 42.31371]}, "properties": {"name": "NATIONAL GRID QUINSIGAMOND 2", "network": "CHARGEPOINT", "nrel_id": 99910, "network_id": "USCPIL555151"}}, {"type": "Feature", "geometry": {"type": "Point", "coordinates": [-71.795169, 42.315882]}, "properties": {"name": "NATIONAL GRID QUINSIGAMOND CC", "network": "CHARGEPOINT", "nrel_id": 99911, "network_id": "USCPIL555051"}}, {"type": "Feature", "geometry": {"type": "Point", "coordinates": [-71.820203, 42.251498]}, "properties": {"name": "NATIONAL GRID SUSTAINABILITY", "network": "CHARGEPOINT", "nrel_id": 99912, "network_id": "USCPIL551811"}}, {"type": "Feature", "geometry": {"type": "Point", "coordinates": [-71.259862, 42.619959]}, "properties": {"name": "NATIONAL GRID 99 TEWKSBURY", "network": "CHARGEPOINT", "nrel_id": 99995, "network_id": "USCPIL551861"}}, {"type": "Feature", "geometry": {"type": "Point", "coordinates": [-71.672645, 42.454463]}, "properties": {"name": "NATIONAL GRID LANCASTER", "network": "CHARGEPOINT", "nrel_id": 99996, "network_id": "USCPIL516761"}}, {"type": "Feature", "geometry": {"type": "Point", "coordinates": [-71.256481, 42.364693]}, "properties": {"name": "520106-Brandeis Gosman Center", "network": "SHELL_RECHARGE", "nrel_id": 100066, "network_id": "1192"}}, {"type": "Feature", "geometry": {"type": "Point", "coordinates": [-71.175904, 42.365209]}, "properties": {"name": "EUM EUM 1 DUAL;EUM EUM 2 SINGLE", "network": "CHARGEPOINT", "nrel_id": 100261, "network_id": "USCPIL601871;USCPIL193985"}}, {"type": "Feature", "geometry": {"type": "Point", "coordinates": [-71.075106, 42.052587]}, "properties": {"name": "NATIONAL GRID EASTON 99", "network": "CHARGEPOINT", "nrel_id": 100331, "network_id": "USCPIL555371"}}, {"type": "Feature", "geometry": {"type": "Point", "coordinates": [-71.256531, 42.36468]}, "properties": {"name": "BRANDEIS ATHLETICS LOT", "network": "CHARGEPOINT", "nrel_id": 100493, "network_id": "USCPIL614701"}}, {"type": "Feature", "geometry": {"type": "Point", "coordinates": [-71.211305, 42.146235]}, "properties": {"name": "Audobon Easterly ChargePoint", "network": "CHARGEPOINT", "osm_id": 17669586, "nrel_id": 100515, "network_id": "USCPIL708651"}}, {"type": "Feature", "geometry": {"type": "Point", "coordinates": [-70.839994, 42.554358]}, "properties": {"name": "ENDICOTT EC GARAGE FLR 3;ENDICOTT EC GARAGE FLR 2;ENDICOTT EC1", "network": "CHARGEPOINT", "nrel_id": 100530, "network_id": "USCPIL397121;USCPIL381841;USCPIL213733"}}, {"type": "Feature", "geometry": {"type": "Point", "coordinates": [-72.109083, 42.423217]}, "properties": {"name": "BARRE HENRY WOODS", "network": "CHARGEPOINT", "nrel_id": 103089, "network_id": "USCPIL639771"}}, {"type": "Feature", "geometry": {"type": "Point", "coordinates": [-71.254303, 42.395297]}, "properties": {"name": "520109-410 Totten Pond Road", "network": "SHELL_RECHARGE", "nrel_id": 103588, "network_id": "1246"}}, {"type": "Feature", "geometry": {"type": "Point", "coordinates": [-71.347577, 42.60392]}, "properties": {"name": "HIE EV CHARGE HEI 1", "network": "CHARGEPOINT", "nrel_id": 104156, "network_id": "USCPIL553771"}}, {"type": "Feature", "geometry": {"type": "Point", "coordinates": [-71.559016, 42.360958]}, "properties": {"name": "BSCI MLB E-01;BSCI MLB E-02", "network": "CHARGEPOINT", "nrel_id": 104167, "network_id": "USCPIL669851;USCPIL13210641"}}, {"type": "Feature", "geometry": {"type": "Point", "coordinates": [-71.466169, 42.543693]}, "properties": {"name": "LELD TOYOTA", "network": "CHARGEPOINT", "nrel_id": 104209, "network_id": "USCPIL673961"}}, {"type": "Feature", "geometry": {"type": "Point", "coordinates": [-70.325439, 41.655798]}, "properties": {"name": "HYANNIS HONDA HONDA SERVICE", "network": "CHARGEPOINT", "nrel_id": 104222, "network_id": "USCPIL665421"}}, {"type": "Feature", "geometry": {"type": "Point", "coordinates": [-71.160169, 42.203498]}, "properties": {"name": "Eversource", "nrel_id": 104939}}, {"type": "Feature", "geometry": {"type": "Point", "coordinates": [-71.158605, 42.492575]}, "properties": {"name": "HURLD WYMAN HURLD WYMAN 1", "network": "CHARGEPOINT", "nrel_id": 105011, "network_id": "USCPIL718741"}}, {"type": "Feature", "geometry": {"type": "Point", "coordinates": [-70.707461, 41.950236]}, "properties": {"name": "NED PLYMOUTH 1;NED PLYMOUTH 2", "network": "CHARGEPOINT", "nrel_id": 105273, "network_id": "USCPIL724781;USCPIL724661"}}, {"type": "Feature", "geometry": {"type": "Point", "coordinates": [-71.209717, 42.337575]}, "properties": {"name": "CITY OF NEWTON WAR MEMORIAL #1;CITY OF NEWTON WAR MEMORIAL #3;CITY OF NEWTON WAR MEMORIAL #4;CITY OF NEWTON WAR MEMORIAL #5;CITY OF NEWTON WAR MEMORIAL #2", "network": "CHARGEPOINT", "nrel_id": 105337, "network_id": "USCPIL771461;USCPIL189411;USCPIL734731;USCPIL734741;USCPIL152091"}}, {"type": "Feature", "geometry": {"type": "Point", "coordinates": [-72.599996, 42.586601]}, "properties": {"name": "GREENFIELDMA OLIVE ST 04;GREENFIELDMA OLIVE ST 03;GREENFIELDMA OLIVE ST 01;GREENFIELDMA OLIVE ST 02", "network": "CHARGEPOINT", "nrel_id": 105425, "network_id": "USCPIL731561;USCPIL731551;USCPIL731441;USCPIL567081"}}, {"type": "Feature", "geometry": {"type": "Point", "coordinates": [-71.310295, 42.643901]}, "properties": {"name": "CITY LOWELL MA LEO ROY #1;CITY LOWELL MA LEO ROY #5", "network": "CHARGEPOINT", "nrel_id": 105507, "network_id": "USCPIL740271;USCPIL1781531"}}, {"type": "Feature", "geometry": {"type": "Point", "coordinates": [-71.128541, 42.363186]}, "properties": {"name": "Swissbakers Inc. - Tesla Destination", "network": "TESLA_DESTINATION", "nrel_id": 114317, "network_id": "501128"}}, {"type": "Feature", "geometry": {"type": "Point", "coordinates": [-70.908409, 42.847511]}, "properties": {"name": "Hampton Inn Amesbury - Tesla Destination", "network": "TESLA_DESTINATION", "nrel_id": 114318, "network_id": "505336"}}, {"type": "Feature", "geometry": {"type": "Point", "coordinates": [-70.2799, 41.66116]}, "properties": {"name": "Doubletree by Hilton Cape Cod - Hyannis - Tesla Destination", "network": "TESLA_DESTINATION", "nrel_id": 114319, "network_id": "513264"}}, {"type": "Feature", "geometry": {"type": "Point", "coordinates": [-71.077525, 42.348627]}, "properties": {"name": "The Westin Copley Place - Tesla Destination", "network": "TESLA_DESTINATION", "nrel_id": 114320, "network_id": "504655"}}, {"type": "Feature", "geometry": {"type": "Point", "coordinates": [-71.065264, 42.350938]}, "properties": {"name": "W Boston Hotel Hotel & Residences - Tesla Destination", "network": "TESLA_DESTINATION", "nrel_id": 114321, "network_id": "513541"}}, {"type": "Feature", "geometry": {"type": "Point", "coordinates": [-71.068673, 42.352135]}, "properties": {"name": "Four Seasons Hotel Boston - Tesla Destination", "network": "TESLA_DESTINATION", "nrel_id": 114322, "network_id": "513974"}}, {"type": "Feature", "geometry": {"type": "Point", "coordinates": [-71.048123, 42.320144]}, "properties": {"name": "DoubleTree Club by Hilton Boston-Bayside - Tesla Destination", "network": "TESLA_DESTINATION", "nrel_id": 114323, "network_id": "500857"}}, {"type": "Feature", "geometry": {"type": "Point", "coordinates": [-71.056023, 42.360881]}, "properties": {"name": "Millennium Bostonian Hotel - Tesla Destination", "network": "TESLA_DESTINATION", "nrel_id": 114324, "network_id": "513216"}}, {"type": "Feature", "geometry": {"type": "Point", "coordinates": [-71.084324, 42.346346]}, "properties": {"name": "Sheraton Boston Hotel - Tesla Destination", "network": "TESLA_DESTINATION", "nrel_id": 114325, "network_id": "512872"}}, {"type": "Feature", "geometry": {"type": "Point", "coordinates": [-71.079428, 42.349218]}, "properties": {"name": "The Lenox Hotel - Tesla Destination", "network": "TESLA_DESTINATION", "nrel_id": 114326, "network_id": "506862"}}, {"type": "Feature", "geometry": {"type": "Point", "coordinates": [-71.082246, 42.348522]}, "properties": {"name": "Mandarin Oriental, Boston - Tesla Destination", "network": "TESLA_DESTINATION", "nrel_id": 114327, "network_id": "499605"}}, {"type": "Feature", "geometry": {"type": "Point", "coordinates": [-71.064651, 42.348958]}, "properties": {"name": "DoubleTree by Hilton Boston - Downtown - Tesla Destination", "network": "TESLA_DESTINATION", "nrel_id": 114328, "network_id": "500445"}}, {"type": "Feature", "geometry": {"type": "Point", "coordinates": [-71.060875, 42.357382]}, "properties": {"name": "Kimpton Nine Zero Hotel - Tesla Destination", "network": "TESLA_DESTINATION", "nrel_id": 114329, "network_id": "500736"}}, {"type": "Feature", "geometry": {"type": "Point", "coordinates": [-70.082652, 41.761818]}, "properties": {"name": "Captain Freeman Inn - Tesla Destination", "network": "TESLA_DESTINATION", "nrel_id": 114330, "network_id": "505143"}}, {"type": "Feature", "geometry": {"type": "Point", "coordinates": [-72.579451, 42.172326]}, "properties": {"name": "Residence Inn by Marriott - Tesla Destination", "network": "TESLA_DESTINATION", "nrel_id": 114332, "network_id": "500358"}}, {"type": "Feature", "geometry": {"type": "Point", "coordinates": [-71.299337, 42.464791]}, "properties": {"name": "Rectrix Aviation - Tesla Destination", "network": "TESLA_DESTINATION", "nrel_id": 114333, "network_id": "501039"}}, {"type": "Feature", "geometry": {"type": "Point", "coordinates": [-70.506627, 41.39241]}, "properties": {"name": "The Harbor View Hotel - Tesla Destination", "network": "TESLA_DESTINATION", "nrel_id": 114334, "network_id": "512550"}}, {"type": "Feature", "geometry": {"type": "Point", "coordinates": [-70.594347, 41.631265]}, "properties": {"name": "The Golf Club of Cape Cod - Tesla Destination", "network": "TESLA_DESTINATION", "nrel_id": 114335, "network_id": "513279"}}, {"type": "Feature", "geometry": {"type": "Point", "coordinates": [-70.620314, 41.555599]}, "properties": {"name": "The Palmer House Inn, a Select Registry Property - Tesla Destination", "network": "TESLA_DESTINATION", "nrel_id": 114336, "network_id": "510669"}}, {"type": "Feature", "geometry": {"type": "Point", "coordinates": [-73.289607, 42.555277]}, "properties": {"name": "Jiminy Peak Mountain Resort - Tesla Destination", "network": "TESLA_DESTINATION", "nrel_id": 114337, "network_id": "505742"}}, {"type": "Feature", "geometry": {"type": "Point", "coordinates": [-69.997152, 41.722223]}, "properties": {"name": "Wequassett Resort and Golf Club - Tesla Destination", "network": "TESLA_DESTINATION", "nrel_id": 114338, "network_id": "502088"}}, {"type": "Feature", "geometry": {"type": "Point", "coordinates": [-73.252803, 42.303202]}, "properties": {"name": "Applegate Inn, a Select Registry Property - Tesla Destination", "network": "TESLA_DESTINATION", "nrel_id": 114339, "network_id": "510156"}}, {"type": "Feature", "geometry": {"type": "Point", "coordinates": [-73.292023, 42.298922]}, "properties": {"name": "The Inn at Stockbridge, a Select Registry Property - Tesla Destination", "network": "TESLA_DESTINATION", "nrel_id": 114340, "network_id": "510375"}}, {"type": "Feature", "geometry": {"type": "Point", "coordinates": [-73.264268, 42.300948]}, "properties": {"name": "Devonfield Inn, a Select Registry Property - Tesla Destination", "network": "TESLA_DESTINATION", "nrel_id": 114341, "network_id": "509346"}}, {"type": "Feature", "geometry": {"type": "Point", "coordinates": [-73.288507, 42.352564]}, "properties": {"name": "Brook Farm Inn, a Select Registry Property - Tesla Destination", "network": "TESLA_DESTINATION", "nrel_id": 114342, "network_id": "510207"}}, {"type": "Feature", "geometry": {"type": "Point", "coordinates": [-73.282639, 42.35599]}, "properties": {"name": "Gateways Inn, a Select Registry Property - Tesla Destination", "network": "TESLA_DESTINATION", "nrel_id": 114343, "network_id": "509339"}}, {"type": "Feature", "geometry": {"type": "Point", "coordinates": [-73.266561, 42.341095]}, "properties": {"name": "Cranwell Resort, Spa & Golf Club - Tesla Destination", "network": "TESLA_DESTINATION", "nrel_id": 114344, "network_id": "499875"}}, {"type": "Feature", "geometry": {"type": "Point", "coordinates": [-73.258924, 42.336121]}, "properties": {"name": "Blantyre - Tesla Destination", "network": "TESLA_DESTINATION", "nrel_id": 114345, "network_id": "501332"}}, {"type": "Feature", "geometry": {"type": "Point", "coordinates": [-73.281833, 42.362848]}, "properties": {"name": "Birchwood Inn, a Select Registry Property - Tesla Destination", "network": "TESLA_DESTINATION", "nrel_id": 114346, "network_id": "510281"}}, {"type": "Feature", "geometry": {"type": "Point", "coordinates": [-73.281108, 42.354931]}, "properties": {"name": "Hampton Terrace Inn - Tesla Destination", "network": "TESLA_DESTINATION", "nrel_id": 114347, "network_id": "503987"}}, {"type": "Feature", "geometry": {"type": "Point", "coordinates": [-70.848065, 42.506009]}, "properties": {"name": "Harbor Light Inn, a Select Registry Property - Tesla Destination", "network": "TESLA_DESTINATION", "nrel_id": 114348, "network_id": "510161"}}, {"type": "Feature", "geometry": {"type": "Point", "coordinates": [-70.492238, 41.61677]}, "properties": {"name": "Mashpee Commons - Tesla Destination", "network": "TESLA_DESTINATION", "nrel_id": 114349, "network_id": "502648"}}, {"type": "Feature", "geometry": {"type": "Point", "coordinates": [-70.11741, 41.289031]}, "properties": {"name": "The Westmoor Club - Tesla Destination", "network": "TESLA_DESTINATION", "nrel_id": 114350, "network_id": "499845"}}, {"type": "Feature", "geometry": {"type": "Point", "coordinates": [-70.093095, 41.278752]}, "properties": {"name": "Great Harbor Yacht Club - Tesla Destination", "network": "TESLA_DESTINATION", "nrel_id": 114351, "network_id": "513329"}}, {"type": "Feature", "geometry": {"type": "Point", "coordinates": [-70.993881, 42.526441]}, "properties": {"name": "Hampton Inn Boston/Peabody - Tesla Destination", "network": "TESLA_DESTINATION", "nrel_id": 114352, "network_id": "500417"}}, {"type": "Feature", "geometry": {"type": "Point", "coordinates": [-70.598013, 41.880154]}, "properties": {"name": "Mirbeau Inn & Spa at the Pinehills - Tesla Destination", "network": "TESLA_DESTINATION", "nrel_id": 114353, "network_id": "508069"}}, {"type": "Feature", "geometry": {"type": "Point", "coordinates": [-70.18499, 42.052869]}, "properties": {"name": "Sage Inn & Lounge - Tesla Destination", "network": "TESLA_DESTINATION", "nrel_id": 114354, "network_id": "499608"}}, {"type": "Feature", "geometry": {"type": "Point", "coordinates": [-70.495236, 41.757246]}, "properties": {"name": "Isaiah Jones Homestead Bed & Breakfast - Tesla Destination", "network": "TESLA_DESTINATION", "nrel_id": 114355, "network_id": "510240"}}, {"type": "Feature", "geometry": {"type": "Point", "coordinates": [-73.19066, 42.705282]}, "properties": {"name": "The Orchards Hotel - Tesla Destination", "network": "TESLA_DESTINATION", "nrel_id": 114358, "network_id": "499827"}}, {"type": "Feature", "geometry": {"type": "Point", "coordinates": [-71.430358, 42.143714]}, "properties": {"name": "TOWN OF MEDWAY LIBRARY STAT 1", "network": "CHARGEPOINT", "nrel_id": 116898, "network_id": "USCPIL749551"}}, {"type": "Feature", "geometry": {"type": "Point", "coordinates": [-72.62487, 42.58707]}, "properties": {"name": "Big Y", "nrel_id": 116949}}, {"type": "Feature", "geometry": {"type": "Point", "coordinates": [-71.057609, 42.357009]}, "properties": {"name": "Ponte Gadea Boston LLC", "nrel_id": 117267}}, {"type": "Feature", "geometry": {"type": "Point", "coordinates": [-71.700007, 42.51922]}, "properties": {"name": "RONBOCHARGE SHOP 02;RONBOCHARGE SHOP 01", "network": "CHARGEPOINT", "nrel_id": 117291, "network_id": "USCPIL763941;USCPIL763931"}}, {"type": "Feature", "geometry": {"type": "Point", "coordinates": [-71.969268, 42.133992]}, "properties": {"name": "TOWN COMMON CITY HALL 1", "network": "CHARGEPOINT", "nrel_id": 117526, "network_id": "USCPIL733221"}}, {"type": "Feature", "geometry": {"type": "Point", "coordinates": [-71.0677, 42.35335]}, "properties": {"name": "MCCA BOS COM GARAGE3;MCCA BOS COM GARAGE7;MCCA BOS COM GARAGE2;MCCA BOS COM GARAGE1;MCCA BOS COM GARAGE4", "network": "CHARGEPOINT", "nrel_id": 117570, "network_id": "USCPIL2029621;USCPIL2029681;USCPIL764701;USCPIL719331;USCPIL2029641"}}, {"type": "Feature", "geometry": {"type": "Point", "coordinates": [-71.108059, 42.339907]}, "properties": {"name": "MASCO E.V.E. 375 LONGWOOD 2;MASCO E.V.E. 375 LONGWOOD;MASCO E.V.E. P2-7;MASCO E.V.E. P2-6;MASCO E.V.E. P2-5;MASCO E.V.E. P2-4", "network": "CHARGEPOINT", "nrel_id": 118036, "network_id": "USCPIL5380721;USCPIL778761;USCPIL15865061;USCPIL15865091;USCPIL15865111;USCPIL15865131"}}, {"type": "Feature", "geometry": {"type": "Point", "coordinates": [-71.256095, 42.392725]}, "properties": {"name": "520110-100 Fifth Ave", "network": "SHELL_RECHARGE", "nrel_id": 118056, "network_id": "1245"}}, {"type": "Feature", "geometry": {"type": "Point", "coordinates": [-71.01277, 42.407791]}, "properties": {"name": "ChargePoint", "network": "CHARGEPOINT", "osm_id": 9563499593, "nrel_id": 118503, "network_id": "USCPIL778711"}}, {"type": "Feature", "geometry": {"type": "Point", "coordinates": [-72.625559, 42.117311]}, "properties": {"name": "BALISE1 STATION01", "network": "CHARGEPOINT", "nrel_id": 118916, "network_id": "USCPIL687731"}}, {"type": "Feature", "geometry": {"type": "Point", "coordinates": [-71.069615, 42.633064]}, "properties": {"name": "ReVision Energy", "nrel_id": 118960}}, {"type": "Feature", "geometry": {"type": "Point", "coordinates": [-71.566443, 42.368152]}, "properties": {"name": "STATION AVRTH 1", "network": "CHARGEPOINT", "nrel_id": 119044, "network_id": "USCPIL371861"}}, {"type": "Feature", "geometry": {"type": "Point", "coordinates": [-71.078147, 42.774953]}, "properties": {"name": "CITY HAVERHILL HAV GARAGE 3;CITY HAVERHILL HAV GARAGE 1;CITY HAVERHILL HAV GARAGE 2", "network": "CHARGEPOINT", "nrel_id": 120966, "network_id": "USCPIL804901;USCPIL804881;USCPIL797481"}}, {"type": "Feature", "geometry": {"type": "Point", "coordinates": [-69.994974, 41.882431]}, "properties": {"name": "ChargePoint", "network": "CHARGEPOINT", "osm_id": 6566523622, "nrel_id": 121226, "network_id": "USCPIL774571"}}, {"type": "Feature", "geometry": {"type": "Point", "coordinates": [-70.897668, 42.521776]}, "properties": {"name": "SEWALL ST. SEWALL STREET", "network": "CHARGEPOINT", "nrel_id": 121572, "network_id": "USCPIL1690631"}}, {"type": "Feature", "geometry": {"type": "Point", "coordinates": [-71.329805, 41.983257]}, "properties": {"name": "Northern Lights Electric", "nrel_id": 121591}}, {"type": "Feature", "geometry": {"type": "Point", "coordinates": [-71.381605, 42.638606]}, "properties": {"name": "CHELMSFORD N CHELMS CENTER", "network": "CHARGEPOINT", "nrel_id": 121698, "network_id": "USCPIL1689501"}}, {"type": "Feature", "geometry": {"type": "Point", "coordinates": [-70.65755, 41.93281]}, "properties": {"name": "Alltown Fresh Convenience Market", "network": "ELECTRIFY_AMERICA", "nrel_id": 121730, "network_id": "100053"}}, {"type": "Feature", "geometry": {"type": "Point", "coordinates": [-71.351632, 42.594589]}, "properties": {"name": "CHELMSFORD ADAMS LIBRARY", "network": "CHARGEPOINT", "nrel_id": 121873, "network_id": "USCPIL1689491"}}, {"type": "Feature", "geometry": {"type": "Point", "coordinates": [-69.989599, 41.916692]}, "properties": {"name": "PB Boulangerie Bistro - Tesla Destination", "network": "TESLA_DESTINATION", "nrel_id": 122445, "network_id": "513210"}}, {"type": "Feature", "geometry": {"type": "Point", "coordinates": [-71.547368, 42.34581]}, "properties": {"name": "MARLBOROUGHMA COURT ST GAR#2;MARLBOROUGHMA COURT ST GAR#1", "network": "CHARGEPOINT", "nrel_id": 122818, "network_id": "USCPIL1760621;USCPIL1760611"}}, {"type": "Feature", "geometry": {"type": "Point", "coordinates": [-71.088256, 42.372448]}, "properties": {"name": "CITYOFCAMBRIDGE WARREN ST", "network": "CHARGEPOINT", "nrel_id": 122958, "network_id": "USCPIL1767461"}}, {"type": "Feature", "geometry": {"type": "Point", "coordinates": [-71.124404, 42.430612]}, "properties": {"name": "MEDFORD VOCATIONAL LOT", "network": "CHARGEPOINT", "nrel_id": 122959, "network_id": "USCPIL1767221"}}, {"type": "Feature", "geometry": {"type": "Point", "coordinates": [-71.31147, 42.6488]}, "properties": {"name": "CITY LOWELL MA GEORGE AYOTTE 4;CITY LOWELL MA GEORGE AYOTTE 3;CITY LOWELL MA GEORGE AYOTTE 2;CITY LOWELL MA GEORGE AYOTTE 1", "network": "CHARGEPOINT", "nrel_id": 123031, "network_id": "USCPIL1773681;USCPIL1773671;USCPIL1773631;USCPIL1773601"}}, {"type": "Feature", "geometry": {"type": "Point", "coordinates": [-71.038657, 42.343742]}, "properties": {"name": "Verizon - Boston", "nrel_id": 123347}}, {"type": "Feature", "geometry": {"type": "Point", "coordinates": [-71.325232, 42.614762]}, "properties": {"name": "Verizon - Lowell", "nrel_id": 123358}}, {"type": "Feature", "geometry": {"type": "Point", "coordinates": [-71.7883, 42.285092]}, "properties": {"name": "ChargePoint", "network": "CHARGEPOINT", "osm_id": 9701270465, "nrel_id": 123408, "network_id": "USCPIL1777781;USCPIL1777771"}}, {"type": "Feature", "geometry": {"type": "Point", "coordinates": [-71.790675, 42.272708]}, "properties": {"name": "UMASS MEMORIAL VISITOR #2;UMASS MEMORIAL VISITOR #1", "network": "CHARGEPOINT", "nrel_id": 123409, "network_id": "USCPIL1777761;USCPIL1777751"}}, {"type": "Feature", "geometry": {"type": "Point", "coordinates": [-71.305574, 42.64305]}, "properties": {"name": "CITY LOWELL MA LOWER LOCKS 4;CITY LOWELL MA LOWER LOCKS 3;CITY LOWELL MA LOWER LOCKS 1;CITY LOWELL MA LOWER LOCKS 2", "network": "CHARGEPOINT", "nrel_id": 123412, "network_id": "USCPIL1777431;USCPIL1777381;USCPIL1777341;USCPIL1777351"}}, {"type": "Feature", "geometry": {"type": "Point", "coordinates": [-71.313331, 42.646264]}, "properties": {"name": "CITY LOWELL MA CITY HALL 1", "network": "CHARGEPOINT", "nrel_id": 123414, "network_id": "USCPIL1777041"}}, {"type": "Feature", "geometry": {"type": "Point", "coordinates": [-71.305113, 42.643882]}, "properties": {"name": "CITY LOWELL MA DAVIDSON 2;CITY LOWELL MA DAVIDSON 1", "network": "CHARGEPOINT", "nrel_id": 123415, "network_id": "USCPIL1776821;USCPIL1776791"}}, {"type": "Feature", "geometry": {"type": "Point", "coordinates": [-71.105562, 42.417726]}, "properties": {"name": "MEDFORD CITY HALL", "network": "CHARGEPOINT", "nrel_id": 123435, "network_id": "USCPIL1779241"}}, {"type": "Feature", "geometry": {"type": "Point", "coordinates": [-71.257774, 42.399595]}, "properties": {"name": "MA PORTFOLIO WYMAN 3;MA PORTFOLIO WYMAN 2;MA PORTFOLIO WYMAN 1;MA PORTFOLIO WYMAN 4", "network": "CHARGEPOINT", "nrel_id": 123441, "network_id": "USCPIL501461;USCPIL501321;USCPIL482431;USCPIL501501"}}, {"type": "Feature", "geometry": {"type": "Point", "coordinates": [-71.105566, 42.365907]}, "properties": {"name": "ChargePoint", "network": "CHARGEPOINT", "osm_id": 10906095726, "nrel_id": 123463, "network_id": "USCPIL1781731"}}, {"type": "Feature", "geometry": {"type": "Point", "coordinates": [-71.310456, 42.644012]}, "properties": {"name": "CITY LOWELL MA LEO ROY #4", "network": "CHARGEPOINT", "nrel_id": 123537, "network_id": "USCPIL1781621"}}, {"type": "Feature", "geometry": {"type": "Point", "coordinates": [-71.310404, 42.643945]}, "properties": {"name": "CITY LOWELL MA LEO ROY #3", "network": "CHARGEPOINT", "nrel_id": 123539, "network_id": "USCPIL1773541"}}, {"type": "Feature", "geometry": {"type": "Point", "coordinates": [-71.310546, 42.64425]}, "properties": {"name": "CITY LOWELL MA LEO ROY #2", "network": "CHARGEPOINT", "nrel_id": 123540, "network_id": "USCPIL1773531"}}, {"type": "Feature", "geometry": {"type": "Point", "coordinates": [-72.587488, 42.158743]}, "properties": {"name": "Rivermills Senior Center", "network": "EV_CONNECT", "nrel_id": 123645, "network_id": "2bfb4a34-8524-4aff-b06d-bcc160c9932f"}}, {"type": "Feature", "geometry": {"type": "Point", "coordinates": [-71.3072, 42.6432]}, "properties": {"name": "CITY LOWELL MA UTEC 01", "network": "CHARGEPOINT", "nrel_id": 123653, "network_id": "USCPIL1790271"}}, {"type": "Feature", "geometry": {"type": "Point", "coordinates": [-72.632688, 42.320591]}, "properties": {"name": "NORTHAMPTON GOTHIC STREET", "network": "CHARGEPOINT", "nrel_id": 143155, "network_id": "USCPIL1864701"}}, {"type": "Feature", "geometry": {"type": "Point", "coordinates": [-72.630083, 42.317949]}, "properties": {"name": "ChargePoint", "network": "CHARGEPOINT", "osm_id": 8567378409, "nrel_id": 143232, "network_id": "USCPIL5384761;USCPIL1850121"}}, {"type": "Feature", "geometry": {"type": "Point", "coordinates": [-71.147673, 42.398646]}, "properties": {"name": "BULFINCH GARAGE B EV6;BULFINCH GARAGE B EV4;BULFINCH GARAGE B EV1;BULFINCH GARAGE B EV5;BULFINCH GARAGE B EV3", "network": "CHARGEPOINT", "nrel_id": 143233, "network_id": "USCPIL1850061;USCPIL1850041;USCPIL1850031;USCPIL1850011;USCPIL1850001"}}, {"type": "Feature", "geometry": {"type": "Point", "coordinates": [-71.62793, 42.07499]}, "properties": {"name": "TOWN UXBRIDGE SENIOR CENTER", "network": "CHARGEPOINT", "nrel_id": 143252, "network_id": "USCPIL1846161"}}, {"type": "Feature", "geometry": {"type": "Point", "coordinates": [-71.04637, 42.521974]}, "properties": {"name": "MA PORTFOLIO 500 EDGEWATER 2;MA PORTFOLIO 500 EDGEWATER 1", "network": "CHARGEPOINT", "nrel_id": 143270, "network_id": "USCPIL1844261;USCPIL1844251"}}, {"type": "Feature", "geometry": {"type": "Point", "coordinates": [-71.16298, 42.69552]}, "properties": {"name": "YOUR EV EXPERTS LEO SONS AUTO", "network": "CHARGEPOINT", "nrel_id": 143286, "network_id": "USCPIL1841571"}}, {"type": "Feature", "geometry": {"type": "Point", "coordinates": [-72.52067, 42.341826]}, "properties": {"name": "AMHERST OFF PK AOP NORTH SIDE;AMHERST OFF PK AOP SOUTH", "network": "CHARGEPOINT", "nrel_id": 143305, "network_id": "USCPIL1836411;USCPIL1836381"}}, {"type": "Feature", "geometry": {"type": "Point", "coordinates": [-71.32976, 42.40892]}, "properties": {"name": "MASS AUDUBON DRUMLIN EV2", "network": "CHARGEPOINT", "nrel_id": 143316, "network_id": "USCPIL1834671"}}, {"type": "Feature", "geometry": {"type": "Point", "coordinates": [-70.87289, 42.811985]}, "properties": {"name": "STATE & HARRIS GARAGE 2;STATE & HARRIS GARAGE", "network": "CHARGEPOINT", "nrel_id": 143378, "network_id": "USCPIL1820701;USCPIL1820631"}}, {"type": "Feature", "geometry": {"type": "Point", "coordinates": [-71.01466, 42.694263]}, "properties": {"name": "BOXFORD TOWN HALL", "network": "CHARGEPOINT", "nrel_id": 143413, "network_id": "USCPIL1814051"}}, {"type": "Feature", "geometry": {"type": "Point", "coordinates": [-71.26807, 42.093044]}, "properties": {"name": "ChargePoint", "network": "CHARGEPOINT", "osm_id": 11264815608, "nrel_id": 143423, "network_id": "USCPIL1812201"}}, {"type": "Feature", "geometry": {"type": "Point", "coordinates": [-71.4258, 42.445924]}, "properties": {"name": "BLAKELEY PROP STATION 01", "network": "CHARGEPOINT", "nrel_id": 143427, "network_id": "USCPIL1811951"}}, {"type": "Feature", "geometry": {"type": "Point", "coordinates": [-70.99907, 42.66239]}, "properties": {"name": "BOXFORD FIRE STATION", "network": "CHARGEPOINT", "nrel_id": 143428, "network_id": "USCPIL1811311"}}, {"type": "Feature", "geometry": {"type": "Point", "coordinates": [-71.01399, 42.694622]}, "properties": {"name": "BOXFORD DPW", "network": "CHARGEPOINT", "nrel_id": 143431, "network_id": "USCPIL1810561"}}, {"type": "Feature", "geometry": {"type": "Point", "coordinates": [-72.645, 42.28953]}, "properties": {"name": "MASS AUDUBON ARCADIA EV2;MASS AUDUBON ARCADIA EV1", "network": "CHARGEPOINT", "nrel_id": 143501, "network_id": "USCPIL1794731;USCPIL1794651"}}, {"type": "Feature", "geometry": {"type": "Point", "coordinates": [-71.20706, 42.123592]}, "properties": {"name": "MASS AUDUBON MOOSE HILL EV1", "network": "CHARGEPOINT", "nrel_id": 143548, "network_id": "USCPIL1762601"}}, {"type": "Feature", "geometry": {"type": "Point", "coordinates": [-71.060745, 42.325601]}, "properties": {"name": "THE ANDI STATION 1;THE ANDI STATION 3;THE ANDI STATION 2", "network": "CHARGEPOINT", "nrel_id": 143638, "network_id": "USCPIL473721;USCPIL353341;USCPIL157797"}}, {"type": "Feature", "geometry": {"type": "Point", "coordinates": [-70.920581, 42.631543]}, "properties": {"name": "MASS AUDUBON IPSWICH RIVER", "network": "CHARGEPOINT", "nrel_id": 143763, "network_id": "USCPIL1734351"}}, {"type": "Feature", "geometry": {"type": "Point", "coordinates": [-71.43449, 42.48711]}, "properties": {"name": "TOWN OF ACTON ATH-EV-3", "network": "CHARGEPOINT", "nrel_id": 143914, "network_id": "USCPIL5498241"}}, {"type": "Feature", "geometry": {"type": "Point", "coordinates": [-71.40238, 42.46864]}, "properties": {"name": "CONCORD LIGHT CMLP EVC-1", "network": "CHARGEPOINT", "nrel_id": 144003, "network_id": "USCPIL1882481"}}, {"type": "Feature", "geometry": {"type": "Point", "coordinates": [-71.10144, 42.287685]}, "properties": {"name": "MASS AUDUBON BNC EV1", "network": "CHARGEPOINT", "nrel_id": 144113, "network_id": "USCPIL1801091"}}, {"type": "Feature", "geometry": {"type": "Point", "coordinates": [-71.52351, 42.226342]}, "properties": {"name": "BLAKELEY PROP HOPKINTON BC", "network": "CHARGEPOINT", "osm_id": 10673798960, "nrel_id": 145023, "network_id": "USCPIL1884871"}}, {"type": "Feature", "geometry": {"type": "Point", "coordinates": [-71.246451, 42.424604]}, "properties": {"name": "MA PORTFOLIO 95 HAYDEN 1", "network": "CHARGEPOINT", "nrel_id": 145362, "network_id": "USCPIL1906061"}}, {"type": "Feature", "geometry": {"type": "Point", "coordinates": [-73.204809, 42.709341]}, "properties": {"name": "WILLIAMS COLLEG WILLIAMS INN", "network": "CHARGEPOINT", "osm_id": 12047641873, "nrel_id": 145366, "network_id": "USCPIL1883041"}}, {"type": "Feature", "geometry": {"type": "Point", "coordinates": [-71.013106, 42.407851]}, "properties": {"name": "Revere City Hall", "nrel_id": 145474}}, {"type": "Feature", "geometry": {"type": "Point", "coordinates": [-72.739006, 42.604225]}, "properties": {"name": "SHELBURNE BRIDGE ST LOT", "network": "CHARGEPOINT", "nrel_id": 145502, "network_id": "USCPIL1928341"}}, {"type": "Feature", "geometry": {"type": "Point", "coordinates": [-72.73711, 42.6047]}, "properties": {"name": "SHELBURNE CROSS ST LOT", "network": "CHARGEPOINT", "nrel_id": 145503, "network_id": "USCPIL1928321"}}, {"type": "Feature", "geometry": {"type": "Point", "coordinates": [-72.630919, 42.199373]}, "properties": {"name": "PEOPLESBANK PEDLAR", "network": "CHARGEPOINT", "nrel_id": 145541, "network_id": "USCPIL1893121"}}, {"type": "Feature", "geometry": {"type": "Point", "coordinates": [-70.962101, 42.55235]}, "properties": {"name": "Michaud Mitsubishi", "nrel_id": 145553}}, {"type": "Feature", "geometry": {"type": "Point", "coordinates": [-71.78862, 42.591402]}, "properties": {"name": "CONLONFA CONLON FA 1", "network": "CHARGEPOINT", "nrel_id": 145765, "network_id": "USCPIL1911861"}}, {"type": "Feature", "geometry": {"type": "Point", "coordinates": [-71.80401, 42.305485]}, "properties": {"name": "SECURITY N BOND STA1", "network": "CHARGEPOINT", "nrel_id": 146633, "network_id": "USCPIL1891741"}}, {"type": "Feature", "geometry": {"type": "Point", "coordinates": [-73.058105, 42.276867]}, "properties": {"name": "BECKET EV EV BECKET LEFT;BECKET EV EV BECKET RIGHT", "network": "CHARGEPOINT", "nrel_id": 146688, "network_id": "USCPIL1948071;USCPIL1939001"}}, {"type": "Feature", "geometry": {"type": "Point", "coordinates": [-71.18351, 42.423748]}, "properties": {"name": "ARLINGTON MA 85 PARK AVE", "network": "CHARGEPOINT", "nrel_id": 146699, "network_id": "USCPIL1808291"}}, {"type": "Feature", "geometry": {"type": "Point", "coordinates": [-71.266385, 42.362255]}, "properties": {"name": "JUMBO CAPITAL STONY BROOK 1", "network": "CHARGEPOINT", "nrel_id": 146774, "network_id": "USCPIL747121"}}, {"type": "Feature", "geometry": {"type": "Point", "coordinates": [-71.114656, 42.366575]}, "properties": {"name": "Harvard University", "nrel_id": 147011}}, {"type": "Feature", "geometry": {"type": "Point", "coordinates": [-71.129549, 42.381773]}, "properties": {"name": "Harvard University", "nrel_id": 147012}}, {"type": "Feature", "geometry": {"type": "Point", "coordinates": [-71.183539, 42.401902]}, "properties": {"name": "Habitat Education Center and Wildlife Sanctuary", "nrel_id": 147091}}, {"type": "Feature", "geometry": {"type": "Point", "coordinates": [-71.904659, 42.455457]}, "properties": {"name": "Wachusett Meadow Wildlife Sanctuary", "nrel_id": 147092}}, {"type": "Feature", "geometry": {"type": "Point", "coordinates": [-71.02366, 42.47204]}, "properties": {"name": "Walmart 3114 - Saugus, MA", "network": "ELECTRIFY_AMERICA", "nrel_id": 147159, "network_id": "200002"}}, {"type": "Feature", "geometry": {"type": "Point", "coordinates": [-70.74195, 42.15621]}, "properties": {"name": "MASS AUDUBON NORTH RIVER EV1", "network": "CHARGEPOINT", "nrel_id": 147381, "network_id": "USCPIL1805441"}}, {"type": "Feature", "geometry": {"type": "Point", "coordinates": [-70.951362, 41.663264]}, "properties": {"name": "Department of Public Infrastructure", "nrel_id": 147416}}, {"type": "Feature", "geometry": {"type": "Point", "coordinates": [-71.07098, 42.370887]}, "properties": {"name": "EDUCATION FIRST HULT HOUSE #3;EDUCATION FIRST HULT HOUSE #2;EDUCATION FIRST HULT HOUSE #1", "network": "CHARGEPOINT", "nrel_id": 147502, "network_id": "USCPIL1978111;USCPIL1973991;USCPIL1932821"}}, {"type": "Feature", "geometry": {"type": "Point", "coordinates": [-71.141736, 42.49976]}, "properties": {"name": "Nardone Electric", "network": "BLINK", "nrel_id": 148093, "network_id": "d0e864cf-fb2a-3dbf-1307-c00000001640"}}, {"type": "Feature", "geometry": {"type": "Point", "coordinates": [-71.266907, 42.362222]}, "properties": {"name": "130 Turner Street", "network": "BLINK", "nrel_id": 148096, "network_id": "d0e864cf-fb2a-3dbf-1307-c00000001068"}}, {"type": "Feature", "geometry": {"type": "Point", "coordinates": [-71.202312, 42.363774]}, "properties": {"name": "Chapel Bridge Park", "network": "BLINK", "nrel_id": 148099, "network_id": "d0e864cf-fb2a-3dbf-1307-c00000001301"}}, {"type": "Feature", "geometry": {"type": "Point", "coordinates": [-71.185547, 42.357601]}, "properties": {"name": "One Newton Place", "network": "BLINK", "nrel_id": 148100, "network_id": "d0e864cf-fb2a-3dbf-1307-c00000003710"}}, {"type": "Feature", "geometry": {"type": "Point", "coordinates": [-71.154321, 42.362903]}, "properties": {"name": "Boston Watertown Residence Inn Marriott", "network": "BLINK", "nrel_id": 148101, "network_id": "d0e864cf-fb2a-3dbf-1307-c00000003782"}}, {"type": "Feature", "geometry": {"type": "Point", "coordinates": [-71.079026, 42.363518]}, "properties": {"name": "Cambridge Science Center", "network": "BLINK", "nrel_id": 148112, "network_id": "d0e864cf-fb2a-3dbf-1307-c00000002565"}}, {"type": "Feature", "geometry": {"type": "Point", "coordinates": [-71.08101, 42.362296]}, "properties": {"name": "Riverfront Office Park Garage", "network": "BLINK", "nrel_id": 148113, "network_id": "d0e864cf-fb2a-3dbf-1307-c00000002097"}}, {"type": "Feature", "geometry": {"type": "Point", "coordinates": [-71.0852, 42.34434]}, "properties": {"name": "The First Church of Christ Scientist", "network": "BLINK", "nrel_id": 148117, "network_id": "d0e864cf-fb2a-3dbf-1307-c00000003298"}}, {"type": "Feature", "geometry": {"type": "Point", "coordinates": [-71.081069, 42.345454]}, "properties": {"name": "Blink", "network": "BLINK", "osm_id": 11292218603, "nrel_id": 148118, "network_id": "d0e864cf-fb2a-3dbf-1307-c00000003775"}}, {"type": "Feature", "geometry": {"type": "Point", "coordinates": [-71.055401, 42.354474]}, "properties": {"name": "100 High Street", "network": "BLINK", "nrel_id": 148119, "network_id": "d0e864cf-fb2a-3dbf-1307-c00000001295"}}, {"type": "Feature", "geometry": {"type": "Point", "coordinates": [-71.083958, 42.343261]}, "properties": {"name": "Midtown Hotel", "network": "BLINK", "nrel_id": 148120, "network_id": "d0e864cf-fb2a-3dbf-1307-c00000001298"}}, {"type": "Feature", "geometry": {"type": "Point", "coordinates": [-71.045337, 42.353161]}, "properties": {"name": "Fan Pier Garage", "network": "BLINK", "nrel_id": 148121, "network_id": "d0e864cf-fb2a-3dbf-1307-c00000000960"}}, {"type": "Feature", "geometry": {"type": "Point", "coordinates": [-71.11144, 42.302729]}, "properties": {"name": "MetroMark Apartments", "network": "BLINK", "nrel_id": 148127, "network_id": "d0e864cf-fb2a-3dbf-1307-c00000002155"}}, {"type": "Feature", "geometry": {"type": "Point", "coordinates": [-70.51083, 41.764891]}, "properties": {"name": "Sandwich Lodge & Resort", "network": "BLINK", "nrel_id": 148181, "network_id": "d0e864cf-fb2a-3dbf-1307-c00000001168"}}, {"type": "Feature", "geometry": {"type": "Point", "coordinates": [-70.031101, 41.938513]}, "properties": {"name": "Wellfleet Town Hall", "network": "BLINK", "nrel_id": 148184, "network_id": "d0e864cf-fb2a-3dbf-1307-c00000003783"}}, {"type": "Feature", "geometry": {"type": "Point", "coordinates": [-70.296125, 41.646941]}, "properties": {"name": "Hyannis Main Street", "network": "BLINK", "nrel_id": 148206, "network_id": "d0e864cf-fb2a-3dbf-1307-c00000002304"}}, {"type": "Feature", "geometry": {"type": "Point", "coordinates": [-71.14278, 42.16427]}, "properties": {"name": "MASS AUDUBON MABA EV1", "network": "CHARGEPOINT", "nrel_id": 149253, "network_id": "USCPIL1969371"}}, {"type": "Feature", "geometry": {"type": "Point", "coordinates": [-72.54735, 42.367287]}, "properties": {"name": "UMASS AMHERST 400 VENTURE WL2;UMASS AMHERST 400 VENTURE WAY", "network": "CHARGEPOINT", "nrel_id": 149274, "network_id": "USCPIL1997781;USCPIL123725"}}, {"type": "Feature", "geometry": {"type": "Point", "coordinates": [-72.53376, 42.39093]}, "properties": {"name": "UMASS AMHERST MULLINS LOT 25", "network": "CHARGEPOINT", "nrel_id": 149372, "network_id": "USCPIL2003981"}}, {"type": "Feature", "geometry": {"type": "Point", "coordinates": [-72.55739, 42.067974]}, "properties": {"name": "SJCC JCCL", "network": "CHARGEPOINT", "nrel_id": 149373, "network_id": "USCPIL2003371"}}, {"type": "Feature", "geometry": {"type": "Point", "coordinates": [-72.557495, 42.068]}, "properties": {"name": "SJCC JCCR", "network": "CHARGEPOINT", "nrel_id": 149374, "network_id": "USCPIL2003361"}}, {"type": "Feature", "geometry": {"type": "Point", "coordinates": [-70.88276, 42.043453]}, "properties": {"name": "ECI ECI PARKING LOT", "network": "CHARGEPOINT", "nrel_id": 149446, "network_id": "USCPIL1964151"}}, {"type": "Feature", "geometry": {"type": "Point", "coordinates": [-71.119321, 42.498951]}, "properties": {"name": "Kelly Nissan - Woburn", "nrel_id": 149472}}, {"type": "Feature", "geometry": {"type": "Point", "coordinates": [-71.119321, 42.498951]}, "properties": {"name": "Kelly Nissan - Woburn", "nrel_id": 149486}}, {"type": "Feature", "geometry": {"type": "Point", "coordinates": [-71.398094, 42.464897]}, "properties": {"name": "CONCORD LIGHT RAIL TRAIL PARK", "network": "CHARGEPOINT", "nrel_id": 149541, "network_id": "USCPIL2012501"}}, {"type": "Feature", "geometry": {"type": "Point", "coordinates": [-71.103545, 42.340351]}, "properties": {"name": "CLSB 3BLACKFAN #1;CLSB 3BLACKFAN #3;CLSB 3BLACKFAN #2;CLSB 3BLACKFAN #4", "network": "CHARGEPOINT", "nrel_id": 149618, "network_id": "USCPIL2014351;USCPIL2014341;USCPIL2014331;USCPIL2014251"}}, {"type": "Feature", "geometry": {"type": "Point", "coordinates": [-71.159628, 42.362241]}, "properties": {"name": "ARSENAL YARDS PURPLE FLOOR 4;ARSENAL YARDS PURPLE FLOOR 2;ARSENAL YARDS PURPLE FLOOR 3;ARSENAL YARDS PURP STREET LVL;ARSENAL YARDS PURPLE LL 2", "network": "CHARGEPOINT", "nrel_id": 149629, "network_id": "USCPIL1954011;USCPIL1954021;USCPIL1954001;USCPIL1953991;USCPIL1954491"}}, {"type": "Feature", "geometry": {"type": "Point", "coordinates": [-71.32553, 42.323967]}, "properties": {"name": "RIVERS SCHOOL RIVERS GW1;RIVERS SCHOOL RIVERS GW2", "network": "CHARGEPOINT", "nrel_id": 149645, "network_id": "USCPIL1996491;USCPIL1978121"}}, {"type": "Feature", "geometry": {"type": "Point", "coordinates": [-71.397984, 42.139605]}, "properties": {"name": "TOWN OF MEDWAY CITY HALL ST1", "network": "CHARGEPOINT", "nrel_id": 149732, "network_id": "USCPIL749531"}}, {"type": "Feature", "geometry": {"type": "Point", "coordinates": [-71.39914, 42.458023]}, "properties": {"name": "CONCORD LIGHT PLAYGROUND PARK", "network": "CHARGEPOINT", "nrel_id": 149800, "network_id": "USCPIL2026981"}}, {"type": "Feature", "geometry": {"type": "Point", "coordinates": [-71.026265, 42.37617]}, "properties": {"name": "MASSPORT EG-02-05;MASSPORT EG-02-04;MASSPORT EG-02-03;MASSPORT EG-02-02;MASSPORT EG-02-01", "network": "CHARGEPOINT", "nrel_id": 149919, "network_id": "USCPIL2032031;USCPIL2032021;USCPIL2032011;USCPIL2031991;USCPIL2031951"}}, {"type": "Feature", "geometry": {"type": "Point", "coordinates": [-72.609474, 42.053185]}, "properties": {"name": "AGAWAM BORGATI PARK", "network": "CHARGEPOINT", "nrel_id": 149921, "network_id": "USCPIL2031961"}}, {"type": "Feature", "geometry": {"type": "Point", "coordinates": [-72.59453, 42.077496]}, "properties": {"name": "AGAWAM BANDSTAND", "network": "CHARGEPOINT", "nrel_id": 149922, "network_id": "USCPIL2031931"}}, {"type": "Feature", "geometry": {"type": "Point", "coordinates": [-72.64312, 42.073742]}, "properties": {"name": "AGAWAM LIBRARY", "network": "CHARGEPOINT", "nrel_id": 149923, "network_id": "USCPIL2031901"}}, {"type": "Feature", "geometry": {"type": "Point", "coordinates": [-71.01862, 42.363445]}, "properties": {"name": "MASSPORT BG-03-04;MASSPORT BG-03-05;MASSPORT BG-03-03;MASSPORT BG-03-02", "network": "CHARGEPOINT", "nrel_id": 149928, "network_id": "USCPIL1999261;USCPIL1999231;USCPIL1999161;USCPIL1999121"}}, {"type": "Feature", "geometry": {"type": "Point", "coordinates": [-71.22789, 42.44921]}, "properties": {"name": "LEXINGTON MA DEPOT SQ 2", "network": "CHARGEPOINT", "nrel_id": 150026, "network_id": "USCPIL2035811"}}, {"type": "Feature", "geometry": {"type": "Point", "coordinates": [-71.225415, 42.447591]}, "properties": {"name": "LEXINGTON MA LEXNSTAR03", "network": "CHARGEPOINT", "nrel_id": 150028, "network_id": "USCPIL2035521"}}, {"type": "Feature", "geometry": {"type": "Point", "coordinates": [-70.93951, 42.567173]}, "properties": {"name": "DANVERS ELECTRI HOBART 1", "network": "CHARGEPOINT", "nrel_id": 150248, "network_id": "USCPIL2037951"}}, {"type": "Feature", "geometry": {"type": "Point", "coordinates": [-70.93865, 42.563423]}, "properties": {"name": "DANVERS ELECTRI ELM STREET 1", "network": "CHARGEPOINT", "nrel_id": 150249, "network_id": "USCPIL2037921"}}, {"type": "Feature", "geometry": {"type": "Point", "coordinates": [-71.4556, 42.465183]}, "properties": {"name": "DISCOVERY1 DISCOVERY1", "network": "CHARGEPOINT", "nrel_id": 150250, "network_id": "USCPIL2037721"}}, {"type": "Feature", "geometry": {"type": "Point", "coordinates": [-71.31178, 41.78452]}, "properties": {"name": "SAKR SPA SAKR SPA 2;SAKR SPA SAKR SPA 1", "network": "CHARGEPOINT", "nrel_id": 150347, "network_id": "USCPIL2024971;USCPIL2024951"}}, {"type": "Feature", "geometry": {"type": "Point", "coordinates": [-72.60464, 42.095337]}, "properties": {"name": "BIG Y FOODS W.SPRINGFIELD 2;BIG Y FOODS W.SPRINGFIELD 1", "network": "CHARGEPOINT", "nrel_id": 150372, "network_id": "USCPIL2042911;USCPIL2042901"}}, {"type": "Feature", "geometry": {"type": "Point", "coordinates": [-73.25958, 42.44783]}, "properties": {"name": "BIG Y FOODS PITTSFIELD 1", "network": "CHARGEPOINT", "nrel_id": 150374, "network_id": "USCPIL2042581"}}, {"type": "Feature", "geometry": {"type": "Point", "coordinates": [-71.054992, 42.361019]}, "properties": {"name": "Dock Square Parking Garage - Tesla Destination", "network": "TESLA_DESTINATION", "nrel_id": 150640, "network_id": "513570"}}, {"type": "Feature", "geometry": {"type": "Point", "coordinates": [-72.012656, 42.136299]}, "properties": {"name": "Tree House Brewing Company - Tesla Destination", "network": "TESLA_DESTINATION", "nrel_id": 150652, "network_id": "511282"}}, {"type": "Feature", "geometry": {"type": "Point", "coordinates": [-71.150391, 42.183322]}, "properties": {"name": "Trillium Brewing Company - Tesla Destination", "network": "TESLA_DESTINATION", "nrel_id": 150702, "network_id": "507745"}}, {"type": "Feature", "geometry": {"type": "Point", "coordinates": [-71.09054, 42.36178]}, "properties": {"name": "MIT CAMPUS BLDG 32P1-8;MIT CAMPUS BLDG 32P1-1;MIT CAMPUS BLDG 32P1-6;MIT CAMPUS BLDG 32P1-7;MIT CAMPUS BLDG 32P1-3;MIT CAMPUS BLDG 32P1-4;MIT CAMPUS BLDG 32P1-5;MIT CAMPUS BLDG 32P1-10;MIT CAMPUS BLDG 32P1-12;MIT CAMPUS BLDG 32P1-11;MIT CAMPUS BLDG 32P1-9", "network": "CHARGEPOINT", "nrel_id": 150789, "network_id": "USCPIL2047361;USCPIL97143;USCPIL2047351;USCPIL2047341;USCPIL97131;USCPIL95955;USCPIL95953;USCPIL12696591;USCPIL12696601;USCPIL12696611;USCPIL12696621"}}, {"type": "Feature", "geometry": {"type": "Point", "coordinates": [-71.227979, 42.449239]}, "properties": {"name": "LEXINGTON MA DEPOT SQ 1", "network": "CHARGEPOINT", "nrel_id": 150800, "network_id": "USCPIL2035721"}}, {"type": "Feature", "geometry": {"type": "Point", "coordinates": [-71.798104, 42.275026]}, "properties": {"name": "WPI GW GARAGE 4;WPI GW GARAGE 5;WPI GW GARAGE 2;WPI GW GARAGE 1;WPI GW GARAGE 3", "network": "CHARGEPOINT", "nrel_id": 150810, "network_id": "USCPIL2050151;USCPIL2050131;USCPIL2049241;USCPIL2049231;USCPIL2049221"}}, {"type": "Feature", "geometry": {"type": "Point", "coordinates": [-71.19067, 42.388357]}, "properties": {"name": "Star Market Belmont", "network": "VOLTA", "nrel_id": 151779, "network_id": "bae0afc8-7857-4e95-9332-e0f1f693fd08"}}, {"type": "Feature", "geometry": {"type": "Point", "coordinates": [-71.218772, 42.481329]}, "properties": {"name": "AMC Burlington Cinema 10", "network": "VOLTA", "nrel_id": 151780, "network_id": "16dc00fa-29d0-4174-82a7-2b1f0bc8d19b"}}, {"type": "Feature", "geometry": {"type": "Point", "coordinates": [-71.22536, 42.48692]}, "properties": {"name": "Wegmans Burlington", "network": "VOLTA", "osm_id": 10764288611, "nrel_id": 151781, "network_id": "1f864542-2018-4174-abfd-408714a05d08"}}, {"type": "Feature", "geometry": {"type": "Point", "coordinates": [-71.395715, 42.301395]}, "properties": {"name": "Shoppers World", "network": "VOLTA", "nrel_id": 151782, "network_id": "7775fd92-962c-4249-89ef-0c392e852453"}}, {"type": "Feature", "geometry": {"type": "Point", "coordinates": [-71.390051, 42.302889]}, "properties": {"name": "AMC DINE-IN Framingham 16", "network": "VOLTA", "nrel_id": 151783, "network_id": "a17d3b5b-c73b-4d3e-8111-8bfa90fc8d82"}}, {"type": "Feature", "geometry": {"type": "Point", "coordinates": [-71.385188, 42.299847]}, "properties": {"name": "Natick Mall D Deck Level 1", "network": "VOLTA", "nrel_id": 151784, "network_id": "0b931ced-cedd-46ab-9d87-66f9b8f40f71"}}, {"type": "Feature", "geometry": {"type": "Point", "coordinates": [-71.064577, 42.503163]}, "properties": {"name": "Shaw's 134 Water Street", "network": "VOLTA", "nrel_id": 151785, "network_id": "19199dce-60a6-4158-9f87-cb374a7a9bc0"}}, {"type": "Feature", "geometry": {"type": "Point", "coordinates": [-70.296184, 41.668321]}, "properties": {"name": "Cape Cod Mall", "network": "VOLTA", "nrel_id": 151870, "network_id": "a95acddd-0a4c-4e87-8e62-6b30cd8922e8"}}, {"type": "Feature", "geometry": {"type": "Point", "coordinates": [-71.38583, 42.302673]}, "properties": {"name": "Natick Mall 1st Floor Garage F", "network": "VOLTA", "nrel_id": 152199, "network_id": "1baf7f91-9f28-4e2d-b7a8-95f9c6da2100"}}, {"type": "Feature", "geometry": {"type": "Point", "coordinates": [-71.385779, 42.30256]}, "properties": {"name": "Natick Mall 2nd Floor Garage F", "network": "VOLTA", "nrel_id": 152200, "network_id": "6faa1d62-cfd7-4a9d-aa95-ca483c46ae66"}}, {"type": "Feature", "geometry": {"type": "Point", "coordinates": [-71.385366, 42.302718]}, "properties": {"name": "Natick Mall 3rd Floor Garage F", "network": "VOLTA", "nrel_id": 152201, "network_id": "8b5bbb89-9bd4-4955-9dfc-6fe1550df655"}}, {"type": "Feature", "geometry": {"type": "Point", "coordinates": [-71.384402, 42.299968]}, "properties": {"name": "Natick Mall C Deck", "network": "VOLTA", "nrel_id": 152202, "network_id": "9c0d8243-a001-4032-953d-c33b42821ea9"}}, {"type": "Feature", "geometry": {"type": "Point", "coordinates": [-71.613829, 42.354639]}, "properties": {"name": "Solomon Pond Mall", "network": "VOLTA", "nrel_id": 152203, "network_id": "3b05e681-475d-4b0c-a4c2-1d239949310f"}}, {"type": "Feature", "geometry": {"type": "Point", "coordinates": [-71.18846, 42.730225]}, "properties": {"name": "NEVINS LIBRARY NEVINS LIBRARY", "network": "CHARGEPOINT", "nrel_id": 152428, "network_id": "USCPIL2068821"}}, {"type": "Feature", "geometry": {"type": "Point", "coordinates": [-71.02188, 42.36621]}, "properties": {"name": "MASSPORT WG-06-02;MASSPORT WG-06-06;MASSPORT WG-06-03;MASSPORT WG-06-05;MASSPORT WG-06-04", "network": "CHARGEPOINT", "nrel_id": 152435, "network_id": "USCPIL2069991;USCPIL2069981;USCPIL2059991;USCPIL2054271;USCPIL2054241"}}, {"type": "Feature", "geometry": {"type": "Point", "coordinates": [-71.01947, 42.36524]}, "properties": {"name": "MASSPORT CG-06-08;MASSPORT CG-06-09;MASSPORT CG-06-06;MASSPORT CG-06-07", "network": "CHARGEPOINT", "nrel_id": 152436, "network_id": "USCPIL2058881;USCPIL2058851;USCPIL2052671;USCPIL2052561"}}, {"type": "Feature", "geometry": {"type": "Point", "coordinates": [-71.15424, 42.416946]}, "properties": {"name": "ChargePoint", "network": "CHARGEPOINT", "osm_id": 11902604149, "nrel_id": 152467, "network_id": "USCPIL1951581"}}, {"type": "Feature", "geometry": {"type": "Point", "coordinates": [-71.77799, 42.317833]}, "properties": {"name": "THE FAIRWAYS THE FAIRWAYS 2", "network": "CHARGEPOINT", "nrel_id": 152499, "network_id": "USCPIL2001301"}}, {"type": "Feature", "geometry": {"type": "Point", "coordinates": [-72.63758, 42.31617]}, "properties": {"name": "SMITH COLLEGE FORD HALL SOUTH;SMITH COLLEGE FORD HALL NORTH", "network": "CHARGEPOINT", "nrel_id": 152524, "network_id": "USCPIL2066471;USCPIL2066451"}}, {"type": "Feature", "geometry": {"type": "Point", "coordinates": [-71.06661, 42.269527]}, "properties": {"name": "TOWN OF MILTON STATION 2", "network": "CHARGEPOINT", "nrel_id": 152532, "network_id": "USCPIL1972721"}}, {"type": "Feature", "geometry": {"type": "Point", "coordinates": [-71.02189, 42.366238]}, "properties": {"name": "MASSPORT WG-03-01", "network": "CHARGEPOINT", "nrel_id": 152571, "network_id": "USCPIL2066561"}}, {"type": "Feature", "geometry": {"type": "Point", "coordinates": [-71.07787, 42.39426]}, "properties": {"name": "Federal Realty - Assembly Row", "network": "ELECTRIFY_AMERICA", "nrel_id": 152577, "network_id": "200304"}}, {"type": "Feature", "geometry": {"type": "Point", "coordinates": [-72.67251, 42.26531]}, "properties": {"name": "WILLISTON SCOTT-1", "network": "CHARGEPOINT", "nrel_id": 153005, "network_id": "USCPIL2079821"}}, {"type": "Feature", "geometry": {"type": "Point", "coordinates": [-71.295572, 42.295479]}, "properties": {"name": "WELLESLEYS WABAN LOT1", "network": "CHARGEPOINT", "nrel_id": 153011, "network_id": "USCPIL2067121"}}, {"type": "Feature", "geometry": {"type": "Point", "coordinates": [-71.392233, 42.288986]}, "properties": {"name": "TOWN OF NATICK COLE CENTER", "network": "CHARGEPOINT", "nrel_id": 153019, "network_id": "USCPIL1902891"}}, {"type": "Feature", "geometry": {"type": "Point", "coordinates": [-71.212958, 42.29769]}, "properties": {"name": "BULFINCH 117 KENDRICK 1", "network": "CHARGEPOINT", "nrel_id": 153059, "network_id": "USCPIL2047771"}}, {"type": "Feature", "geometry": {"type": "Point", "coordinates": [-73.104933, 42.693709]}, "properties": {"name": "MCLA FEIGENBAUM 71 BLACKINTON", "network": "CHARGEPOINT", "nrel_id": 153087, "network_id": "USCPIL2083301"}}, {"type": "Feature", "geometry": {"type": "Point", "coordinates": [-70.8632, 42.845966]}, "properties": {"name": "SALISBURY MA FIRE STATION", "network": "CHARGEPOINT", "nrel_id": 153141, "network_id": "USCPIL2086751"}}, {"type": "Feature", "geometry": {"type": "Point", "coordinates": [-71.08878, 42.36482]}, "properties": {"name": "BOSTON PROP CC 145BW STATION 2;BOSTON PROP CC 145BW STATION 1;BOSTON PROP CC 145BW STATION 3;BOSTON PROP CC 145BW STATION 4", "network": "CHARGEPOINT", "nrel_id": 153149, "network_id": "USCPIL2061651;USCPIL2061641;USCPIL1975961;USCPIL1975551"}}, {"type": "Feature", "geometry": {"type": "Point", "coordinates": [-71.042534, 42.349808]}, "properties": {"name": "SEAPORT GARAGE WEST GARAGE3 P1;SEAPORT GARAGE WEST 4 P1", "network": "CHARGEPOINT", "nrel_id": 153221, "network_id": "USCPIL2089361;USCPIL13423141"}}, {"type": "Feature", "geometry": {"type": "Point", "coordinates": [-71.040726, 42.348827]}, "properties": {"name": "SEAPORT GARAGE EAST GARAGE3 P1;SEAPORT GARAGE EAST 4 P1", "network": "CHARGEPOINT", "nrel_id": 153222, "network_id": "USCPIL2089341;USCPIL13423501"}}, {"type": "Feature", "geometry": {"type": "Point", "coordinates": [-71.255631, 42.402465]}, "properties": {"name": "MA PORTFOLIO 185 WYMAN ST #2", "network": "CHARGEPOINT", "nrel_id": 153257, "network_id": "USCPIL2091291"}}, {"type": "Feature", "geometry": {"type": "Point", "coordinates": [-73.207111, 42.712406]}, "properties": {"name": "WILLIAMS COLLEG SPENCER HOUSE", "network": "CHARGEPOINT", "nrel_id": 153259, "network_id": "USCPIL2091231"}}, {"type": "Feature", "geometry": {"type": "Point", "coordinates": [-73.201372, 42.713846]}, "properties": {"name": "WILLIAMS COLLEG SAWYER LIBRARY", "network": "CHARGEPOINT", "nrel_id": 153260, "network_id": "USCPIL2091211"}}, {"type": "Feature", "geometry": {"type": "Point", "coordinates": [-73.207079, 42.715264]}, "properties": {"name": "WILLIAMS COLLEG PRK GRG LEFT;WILLIAMS COLLEG PKG GRG RIGHT", "network": "CHARGEPOINT", "nrel_id": 153261, "network_id": "USCPIL2091191;USCPIL2091171"}}, {"type": "Feature", "geometry": {"type": "Point", "coordinates": [-73.202591, 42.714758]}, "properties": {"name": "WILLIAMS COLLEG HOLLANDER HALL", "network": "CHARGEPOINT", "nrel_id": 153262, "network_id": "USCPIL2091181"}}, {"type": "Feature", "geometry": {"type": "Point", "coordinates": [-71.07005, 42.501366]}, "properties": {"name": "ChargePoint", "network": "CHARGEPOINT", "osm_id": 8857512593, "nrel_id": 153299, "network_id": "USCPIL2092341"}}, {"type": "Feature", "geometry": {"type": "Point", "coordinates": [-71.841552, 42.266293]}, "properties": {"name": "WSU EV 2;WSU EV 3", "network": "CHARGEPOINT", "nrel_id": 153302, "network_id": "USCPIL2089071;USCPIL2089061"}}, {"type": "Feature", "geometry": {"type": "Point", "coordinates": [-73.202911, 42.706637]}, "properties": {"name": "WILLIAMS COLLEG MEACHAM ST", "network": "CHARGEPOINT", "nrel_id": 153555, "network_id": "USCPIL2095881"}}, {"type": "Feature", "geometry": {"type": "Point", "coordinates": [-71.276184, 42.405277]}, "properties": {"name": "RESERVOR WOODS STATION 3;RESERVOR WOODS STATION 1", "network": "CHARGEPOINT", "nrel_id": 153557, "network_id": "USCPIL2093461;USCPIL2093451"}}, {"type": "Feature", "geometry": {"type": "Point", "coordinates": [-71.082172, 42.366835]}, "properties": {"name": "249 THIRD ST 249 CHARGER", "network": "CHARGEPOINT", "nrel_id": 153561, "network_id": "USCPIL1912021"}}, {"type": "Feature", "geometry": {"type": "Point", "coordinates": [-69.98462, 41.84648]}, "properties": {"name": "FOUR POINTS SHERATON 1-2", "network": "CHARGEPOINT", "nrel_id": 153645, "network_id": "USCPIL2100221"}}, {"type": "Feature", "geometry": {"type": "Point", "coordinates": [-71.333684, 42.640919]}, "properties": {"name": "UMASS LOWELL COBURN", "network": "CHARGEPOINT", "nrel_id": 153653, "network_id": "USCPIL2064411"}}, {"type": "Feature", "geometry": {"type": "Point", "coordinates": [-72.55975, 42.6066]}, "properties": {"name": "MONTAGUE SIXTH ST", "network": "CHARGEPOINT", "nrel_id": 153677, "network_id": "USCPIL2101701"}}, {"type": "Feature", "geometry": {"type": "Point", "coordinates": [-72.55666, 42.60953]}, "properties": {"name": "MONTAGUE SECOND ST", "network": "CHARGEPOINT", "nrel_id": 153678, "network_id": "USCPIL2101661"}}, {"type": "Feature", "geometry": {"type": "Point", "coordinates": [-72.52416, 42.590717]}, "properties": {"name": "TFMA TFMA 2;TFMA TFMA 1", "network": "CHARGEPOINT", "nrel_id": 153680, "network_id": "USCPIL2101601;USCPIL2101591"}}, {"type": "Feature", "geometry": {"type": "Point", "coordinates": [-70.963132, 42.452675]}, "properties": {"name": "ATLANTIC TOYOTA ATLANTIC LOT 2", "network": "CHARGEPOINT", "nrel_id": 153720, "network_id": "USCPIL2049211"}}, {"type": "Feature", "geometry": {"type": "Point", "coordinates": [-71.0, 42.248558]}, "properties": {"name": "HANCOCK GARAGE HANCOCK 4;HANCOCK GARAGE HANCOCK 5", "network": "CHARGEPOINT", "nrel_id": 153721, "network_id": "USCPIL2029471;USCPIL2029481"}}, {"type": "Feature", "geometry": {"type": "Point", "coordinates": [-71.07885, 42.50682]}, "properties": {"name": "ChargePoint", "network": "CHARGEPOINT", "osm_id": 7656456861, "nrel_id": 154025, "network_id": "USCPIL2110131"}}, {"type": "Feature", "geometry": {"type": "Point", "coordinates": [-70.279097, 41.6577]}, "properties": {"name": "CCRTA EV-3 BUS TERM;CCRTA EV-5 BUS TERM;CCRTA EV-4 BUS TERM", "network": "CHARGEPOINT", "nrel_id": 154026, "network_id": "USCPIL2104221;USCPIL2104211;USCPIL2104231"}}, {"type": "Feature", "geometry": {"type": "Point", "coordinates": [-70.279166, 41.657535]}, "properties": {"name": "CCRTA EV-1 BUS TERM", "network": "CHARGEPOINT", "nrel_id": 154027, "network_id": "USCPIL2104201"}}, {"type": "Feature", "geometry": {"type": "Point", "coordinates": [-70.278483, 41.656904]}, "properties": {"name": "CCRTA EV-2 BUS TERM", "network": "CHARGEPOINT", "nrel_id": 154028, "network_id": "USCPIL2104181"}}, {"type": "Feature", "geometry": {"type": "Point", "coordinates": [-70.280255, 41.656988]}, "properties": {"name": "CCRTA EV-6 TRANSP DR;CCRTA EV-7 TRANSP DRV", "network": "CHARGEPOINT", "nrel_id": 154029, "network_id": "USCPIL2104161;USCPIL2104131"}}, {"type": "Feature", "geometry": {"type": "Point", "coordinates": [-70.280317, 41.655424]}, "properties": {"name": "CCRTA EV-10 TRANSP DR", "network": "CHARGEPOINT", "nrel_id": 154030, "network_id": "USCPIL2104151"}}, {"type": "Feature", "geometry": {"type": "Point", "coordinates": [-70.280514, 41.656041]}, "properties": {"name": "CCRTA EV-9 TRANSP DRV", "network": "CHARGEPOINT", "nrel_id": 154031, "network_id": "USCPIL2104121"}}, {"type": "Feature", "geometry": {"type": "Point", "coordinates": [-71.06232, 42.324682]}, "properties": {"name": "THE ANDI STATION 6;THE ANDI STATION 4;THE ANDI STATION 5;THE ANDI STATION 7", "network": "CHARGEPOINT", "nrel_id": 154033, "network_id": "USCPIL425631;USCPIL383551;USCPIL353451;USCPIL353331"}}, {"type": "Feature", "geometry": {"type": "Point", "coordinates": [-71.38149, 42.12292]}, "properties": {"name": "311EAG STATION 2", "network": "CHARGEPOINT", "nrel_id": 154300, "network_id": "USCPIL2102501"}}, {"type": "Feature", "geometry": {"type": "Point", "coordinates": [-71.381424, 42.122902]}, "properties": {"name": "311EAG STATION 1", "network": "CHARGEPOINT", "nrel_id": 154301, "network_id": "USCPIL2102431"}}, {"type": "Feature", "geometry": {"type": "Point", "coordinates": [-71.117485, 41.839172]}, "properties": {"name": "DIGHTON TOWN 979 SOMERSET", "network": "CHARGEPOINT", "nrel_id": 154365, "network_id": "USCPIL2129671"}}, {"type": "Feature", "geometry": {"type": "Point", "coordinates": [-71.11759, 41.837635]}, "properties": {"name": "DIGHTON TOWN 1111 SOMERSET", "network": "CHARGEPOINT", "nrel_id": 154366, "network_id": "USCPIL2129611"}}, {"type": "Feature", "geometry": {"type": "Point", "coordinates": [-71.59069, 42.561314]}, "properties": {"name": "TOWN OF AYER 0 PARK ST EV 1", "network": "CHARGEPOINT", "nrel_id": 154389, "network_id": "USCPIL2131641"}}, {"type": "Feature", "geometry": {"type": "Point", "coordinates": [-71.33603, 42.640835]}, "properties": {"name": "UMASS LOWELL SOUTH GARAGE 1C", "network": "CHARGEPOINT", "nrel_id": 154409, "network_id": "USCPIL2133321"}}, {"type": "Feature", "geometry": {"type": "Point", "coordinates": [-71.036316, 42.392735]}, "properties": {"name": "ChargePoint", "network": "CHARGEPOINT", "osm_id": 7659257400, "nrel_id": 154410, "network_id": "USCPIL2132731"}}, {"type": "Feature", "geometry": {"type": "Point", "coordinates": [-71.06934, 42.502914]}, "properties": {"name": "ChargePoint", "network": "CHARGEPOINT", "osm_id": 8857512592, "nrel_id": 154451, "network_id": "USCPIL2137841"}}, {"type": "Feature", "geometry": {"type": "Point", "coordinates": [-71.31584, 42.650887]}, "properties": {"name": "UMASS LOWELL HALL GARAGE;UMASS LOWELL HALL GARAGE 1B;UMASS LOWELL AMES LOT 5;UMASS LOWELL AMES LOT 4;UMASS LOWELL AMES LOT 3;UMASS LOWELL AMES LOT 1;UMASS LOWELL AMES LOT 2", "network": "CHARGEPOINT", "nrel_id": 154516, "network_id": "USCPIL2241091;USCPIL2240921;USCPIL12428351;USCPIL12428361;USCPIL12428371;USCPIL12428381;USCPIL12428471"}}, {"type": "Feature", "geometry": {"type": "Point", "coordinates": [-72.562624, 42.098577]}, "properties": {"name": "EDUCARE EDUCARE # 2", "network": "CHARGEPOINT", "nrel_id": 155150, "network_id": "USCPIL2035831"}}, {"type": "Feature", "geometry": {"type": "Point", "coordinates": [-72.561764, 42.099109]}, "properties": {"name": "EDUCARE EDUCARE # 1", "network": "CHARGEPOINT", "nrel_id": 155151, "network_id": "USCPIL2035801"}}, {"type": "Feature", "geometry": {"type": "Point", "coordinates": [-71.98468, 42.59437]}, "properties": {"name": "MT WACHUSETT CC MWCC STA 3;MT WACHUSETT CC MWCC STA 2;MT WACHUSETT CC MWCC STA 1", "network": "CHARGEPOINT", "nrel_id": 155261, "network_id": "USCPIL2880611;USCPIL2880571;USCPIL2880491"}}, {"type": "Feature", "geometry": {"type": "Point", "coordinates": [-70.664994, 41.958372]}, "properties": {"name": "PLYMOUTH BREWSTER ST LOT", "network": "CHARGEPOINT", "nrel_id": 155262, "network_id": "USCPIL2857511"}}, {"type": "Feature", "geometry": {"type": "Point", "coordinates": [-70.51561, 41.352815]}, "properties": {"name": "Winnetu Oceanside Resort", "network": "BLINK", "nrel_id": 155276, "network_id": "d0e864cf-fb2a-3dbf-1307-c00000004383"}}, {"type": "Feature", "geometry": {"type": "Point", "coordinates": [-69.99376, 41.78812]}, "properties": {"name": "ChargePoint", "network": "CHARGEPOINT", "osm_id": 8272470464, "nrel_id": 155319, "network_id": "USCPIL2634071"}}, {"type": "Feature", "geometry": {"type": "Point", "coordinates": [-71.312256, 42.64978]}, "properties": {"name": "UMASS LOWELL TSONGAS B LEFT;UMASS LOWELL TSONGAS B RIGHT", "network": "CHARGEPOINT", "nrel_id": 155407, "network_id": "USCPIL3173821;USCPIL3173711"}}, {"type": "Feature", "geometry": {"type": "Point", "coordinates": [-71.480402, 42.541546]}, "properties": {"name": "LELD LITTLETONLIBRAR", "network": "CHARGEPOINT", "nrel_id": 155408, "network_id": "USCPIL729771"}}, {"type": "Feature", "geometry": {"type": "Point", "coordinates": [-71.1063, 42.365963]}, "properties": {"name": "CITYOFCAMBRIDGE 420 GREEN LOT 9", "network": "CHARGEPOINT", "nrel_id": 155425, "network_id": "USCPIL1781751"}}, {"type": "Feature", "geometry": {"type": "Point", "coordinates": [-71.123726, 42.70284]}, "properties": {"name": "HIGH ST. LOT PARKING GARAGE", "network": "CHARGEPOINT", "nrel_id": 155541, "network_id": "USCPIL3184251"}}, {"type": "Feature", "geometry": {"type": "Point", "coordinates": [-71.08589, 42.774296]}, "properties": {"name": "MVRTA GARAGES GRANITE 4;MVRTA GARAGES GRANITE 3;MVRTA GARAGES GRANITE 1;MVRTA GARAGES GRANITE 2", "network": "CHARGEPOINT", "nrel_id": 155542, "network_id": "USCPIL3171141;USCPIL3170891;USCPIL3065611;USCPIL3116921"}}, {"type": "Feature", "geometry": {"type": "Point", "coordinates": [-71.38993, 42.638927]}, "properties": {"name": "CHELMSFORD SENIOR CENTER", "network": "CHARGEPOINT", "nrel_id": 156004, "network_id": "USCPIL3766971"}}, {"type": "Feature", "geometry": {"type": "Point", "coordinates": [-71.37569, 42.622143]}, "properties": {"name": "CHELMSFORD HIGH SCHOOL 1;CHELMSFORD HIGH SCHOOL 2", "network": "CHARGEPOINT", "nrel_id": 156005, "network_id": "USCPIL3521741;USCPIL3521411"}}, {"type": "Feature", "geometry": {"type": "Point", "coordinates": [-71.38961, 42.60591]}, "properties": {"name": "CHELMSFORD ROBERTS FIELD", "network": "CHARGEPOINT", "nrel_id": 156006, "network_id": "USCPIL3474731"}}, {"type": "Feature", "geometry": {"type": "Point", "coordinates": [-71.315584, 42.622367]}, "properties": {"name": "FOUNDRY PARK STATION 1", "network": "CHARGEPOINT", "nrel_id": 156007, "network_id": "USCPIL2906511"}}, {"type": "Feature", "geometry": {"type": "Point", "coordinates": [-71.152084, 42.702175]}, "properties": {"name": "MVRTA GARAGES MCGOVERN 2;MVRTA GARAGES MCGOVERN 1", "network": "CHARGEPOINT", "nrel_id": 156098, "network_id": "USCPIL4115861;USCPIL4114741"}}, {"type": "Feature", "geometry": {"type": "Point", "coordinates": [-71.324776, 42.593937]}, "properties": {"name": "CHELMSFORD DPW 1;CHELMSFORD DPW 2", "network": "CHARGEPOINT", "nrel_id": 156099, "network_id": "USCPIL4112551;USCPIL4112291"}}, {"type": "Feature", "geometry": {"type": "Point", "coordinates": [-72.59599, 42.10483]}, "properties": {"name": "RESOURCE CENTER RESOURCE 2;RESOURCE CENTER RESOURCE 1", "network": "CHARGEPOINT", "nrel_id": 156100, "network_id": "USCPIL3240531;USCPIL3238411"}}, {"type": "Feature", "geometry": {"type": "Point", "coordinates": [-72.596921, 42.10514]}, "properties": {"name": "RESOURCE CENTER RESOURCE 4;RESOURCE CENTER RESOURCE 1", "network": "CHARGEPOINT", "nrel_id": 156101, "network_id": "USCPIL3240031;USCPIL3238411"}}, {"type": "Feature", "geometry": {"type": "Point", "coordinates": [-71.57233, 42.36964]}, "properties": {"name": "100 CROWLEY STATION 1", "network": "CHARGEPOINT", "nrel_id": 156102, "network_id": "USCPIL2132761"}}, {"type": "Feature", "geometry": {"type": "Point", "coordinates": [-71.090122, 42.050525]}, "properties": {"name": "WATER POINTE EV STATION 2;WATER POINTE EV STATION 1", "network": "CHARGEPOINT", "nrel_id": 156231, "network_id": "USCPIL4338701;USCPIL4338611"}}, {"type": "Feature", "geometry": {"type": "Point", "coordinates": [-71.000204, 42.248488]}, "properties": {"name": "HANCOCK GARAGE FLOOR 2", "network": "CHARGEPOINT", "nrel_id": 156338, "network_id": "USCPIL2029521"}}, {"type": "Feature", "geometry": {"type": "Point", "coordinates": [-71.016255, 42.063779]}, "properties": {"name": "Walgreens #2977", "network": "BLINK", "nrel_id": 156365, "network_id": "465ba1dd-d734-8158-93cc-330000504943"}}, {"type": "Feature", "geometry": {"type": "Point", "coordinates": [-71.120838, 41.718511]}, "properties": {"name": "BRISTOLEV BCC 9-2;BRISTOLEV BCC 9-3;BRISTOLEV BCC 8-2;BRISTOLEV BCC 9-1", "network": "CHARGEPOINT", "nrel_id": 156377, "network_id": "USCPIL4662851;USCPIL4662781;USCPIL4662771;USCPIL4662661"}}, {"type": "Feature", "geometry": {"type": "Point", "coordinates": [-70.974936, 41.974527]}, "properties": {"name": "SHBH BEDFORD #2;SHBH BEDFORD #3;SHBH BEDFORD #4;SHBH BEDFORD #1;SHBH BEDFORD #5", "network": "CHARGEPOINT", "nrel_id": 156378, "network_id": "USCPIL4341021;USCPIL4340921;USCPIL4340871;USCPIL4340841;USCPIL4340791"}}, {"type": "Feature", "geometry": {"type": "Point", "coordinates": [-70.990199, 42.086411]}, "properties": {"name": "SHBH CENTRE #3", "network": "CHARGEPOINT", "nrel_id": 156379, "network_id": "USCPIL4336801"}}, {"type": "Feature", "geometry": {"type": "Point", "coordinates": [-71.22888, 42.446877]}, "properties": {"name": "LEXINGTON MA CENTER LOT 2", "network": "CHARGEPOINT", "nrel_id": 156483, "network_id": "USCPIL4746821"}}, {"type": "Feature", "geometry": {"type": "Point", "coordinates": [-71.229034, 42.447132]}, "properties": {"name": "LEXINGTON MA CENTER LOT 1", "network": "CHARGEPOINT", "nrel_id": 156484, "network_id": "USCPIL4746591"}}, {"type": "Feature", "geometry": {"type": "Point", "coordinates": [-71.062686, 42.057059]}, "properties": {"name": "SHBH LIBERTY #2;SHBH LIBERTY #3;SHBH LIBERTY #1;SHBH LIBERTY #4", "network": "CHARGEPOINT", "nrel_id": 156612, "network_id": "USCPIL4339201;USCPIL4339141;USCPIL4339111;USCPIL4339031"}}, {"type": "Feature", "geometry": {"type": "Point", "coordinates": [-70.85269, 42.496952]}, "properties": {"name": "MMLD 1 80 COMMERCIAL 1", "network": "CHARGEPOINT", "nrel_id": 156638, "network_id": "USCPIL451231"}}, {"type": "Feature", "geometry": {"type": "Point", "coordinates": [-71.75044, 42.22089]}, "properties": {"name": "WHEELOCK 69 WHEELOCK 1", "network": "CHARGEPOINT", "nrel_id": 156810, "network_id": "USCPIL5018431"}}, {"type": "Feature", "geometry": {"type": "Point", "coordinates": [-72.62522, 42.14403]}, "properties": {"name": "UEC #1 STATION 1", "network": "CHARGEPOINT", "nrel_id": 158484, "network_id": "USCPIL2085191"}}, {"type": "Feature", "geometry": {"type": "Point", "coordinates": [-71.17952, 42.187717]}, "properties": {"name": "EV STATION AT NORWOOD LIGHT", "network": "CHARGEPOINT", "nrel_id": 158533, "network_id": "USCPIL5065241"}}, {"type": "Feature", "geometry": {"type": "Point", "coordinates": [-71.19404, 42.50664]}, "properties": {"name": "TOWN HALL 1 TOWN HALL 1", "network": "CHARGEPOINT", "nrel_id": 158554, "network_id": "USCPIL5348691"}}, {"type": "Feature", "geometry": {"type": "Point", "coordinates": [-70.854324, 42.619762]}, "properties": {"name": "HAMILTON TWNHLL TOWNHALL 1", "network": "CHARGEPOINT", "nrel_id": 158570, "network_id": "USCPIL5348911"}}, {"type": "Feature", "geometry": {"type": "Point", "coordinates": [-71.074893, 42.349209]}, "properties": {"name": "100 CLARENDON STATION 9;100 CLARENDON 200CLARENDON 8;100 CLARENDON 200 LEFT;100 CLARENDON 200 CENTER;100 CLARENDON 200 RIGHT", "network": "CHARGEPOINT", "nrel_id": 161801, "network_id": "USCPIL284101;USCPIL286381;USCPIL12483391;USCPIL12483401;USCPIL12483421"}}, {"type": "Feature", "geometry": {"type": "Point", "coordinates": [-71.104291, 42.396944]}, "properties": {"name": "SOMERVILLE MA MAGOUN ST1", "network": "CHARGEPOINT", "nrel_id": 161802, "network_id": "USCPIL277361"}}, {"type": "Feature", "geometry": {"type": "Point", "coordinates": [-71.323644, 42.614125]}, "properties": {"name": "CROSS POINT CROSS POINT 1", "network": "CHARGEPOINT", "nrel_id": 161803, "network_id": "USCPIL267981"}}, {"type": "Feature", "geometry": {"type": "Point", "coordinates": [-70.772282, 42.574678]}, "properties": {"name": "MANTOWN01944 MANCHESTERMA2;MANTOWN01944 MANCHESTERMA1", "network": "CHARGEPOINT", "nrel_id": 161804, "network_id": "USCPIL251421;USCPIL237911"}}, {"type": "Feature", "geometry": {"type": "Point", "coordinates": [-71.070048, 42.458524]}, "properties": {"name": "ChargePoint", "network": "CHARGEPOINT", "osm_id": 7154146846, "nrel_id": 161805, "network_id": "USCPIL237981"}}, {"type": "Feature", "geometry": {"type": "Point", "coordinates": [-71.120202, 42.334638]}, "properties": {"name": "BROOKLINE HEALTH 2;BROOKLINE HEALTH 1", "network": "CHARGEPOINT", "nrel_id": 161808, "network_id": "USCPIL226038;USCPIL226022"}}, {"type": "Feature", "geometry": {"type": "Point", "coordinates": [-71.12389, 42.342533]}, "properties": {"name": "ChargePoint", "network": "CHARGEPOINT", "osm_id": 10764654496, "nrel_id": 161809, "network_id": "USCPIL226032"}}, {"type": "Feature", "geometry": {"type": "Point", "coordinates": [-71.044435, 42.351046]}, "properties": {"name": "121 SEAPORT GAR LEVEL3 STATION1;121 SEAPORT GAR LEVEL1 STATION1;121 SEAPORT GAR LEVEL2 STATION1;121 SEAPORT GAR LEVEL1 STATION2;121 SEAPORT GAR LEVEL3 STATION3;121 SEAPORT GAR LEVEL3 STATION2;121 SEAPORT GAR LEVEL1 STATION3;121 SEAPORT GAR LEVEL2 STATION3;121 SEAPORT GAR LEVEL2 STATION2", "network": "CHARGEPOINT", "nrel_id": 161812, "network_id": "USCPIL223606;USCPIL223064;USCPIL207135;USCPIL178593;USCPIL174333;USCPIL174255;USCPIL174249;USCPIL173347;USCPIL167227"}}, {"type": "Feature", "geometry": {"type": "Point", "coordinates": [-71.040315, 42.365817]}, "properties": {"name": "PORTSIDE EV STATION 02;PORTSIDE EV STATION 01", "network": "CHARGEPOINT", "nrel_id": 161815, "network_id": "USCPIL219673;USCPIL219305"}}, {"type": "Feature", "geometry": {"type": "Point", "coordinates": [-71.489709, 42.296514]}, "properties": {"name": "9.90 CORPORATE STATION 1", "network": "CHARGEPOINT", "nrel_id": 161816, "network_id": "USCPIL218715"}}, {"type": "Feature", "geometry": {"type": "Point", "coordinates": [-71.064448, 42.345216]}, "properties": {"name": "345 HARRISON EAST GATE 2", "network": "CHARGEPOINT", "nrel_id": 161821, "network_id": "USCPIL212209"}}, {"type": "Feature", "geometry": {"type": "Point", "coordinates": [-70.975696, 42.570016]}, "properties": {"name": "BEST  WESTERN PLUS DANVERS", "network": "CHARGEPOINT", "nrel_id": 161822, "network_id": "USCPIL212161"}}, {"type": "Feature", "geometry": {"type": "Point", "coordinates": [-72.347066, 42.186024]}, "properties": {"name": "PALMER TOWN HAL TOWN HALL", "network": "CHARGEPOINT", "nrel_id": 161823, "network_id": "USCPIL211039"}}, {"type": "Feature", "geometry": {"type": "Point", "coordinates": [-72.329958, 42.158911]}, "properties": {"name": "PALMER TOWN HAL LIBRARY", "network": "CHARGEPOINT", "nrel_id": 161824, "network_id": "USCPIL211019"}}, {"type": "Feature", "geometry": {"type": "Point", "coordinates": [-71.077478, 42.368992]}, "properties": {"name": "CITYOFCAMBRIDGE FIRST ST #1", "network": "CHARGEPOINT", "nrel_id": 161825, "network_id": "USCPIL210719"}}, {"type": "Feature", "geometry": {"type": "Point", "coordinates": [-71.105662, 42.338179]}, "properties": {"name": "LONGWOOD GARAGE 333 LONGWOOD 01", "network": "CHARGEPOINT", "nrel_id": 161826, "network_id": "USCPIL208659"}}, {"type": "Feature", "geometry": {"type": "Point", "coordinates": [-71.089088, 42.363111]}, "properties": {"name": "BOSTON PROP CC WEST GARAGE 1;BOSTON PROP CC WEST GARAGE 2", "network": "CHARGEPOINT", "nrel_id": 161829, "network_id": "USCPIL205835;USCPIL196533"}}, {"type": "Feature", "geometry": {"type": "Point", "coordinates": [-71.105342, 42.367081]},